{
  "featured": [
    {
      "name": "Longley's",
      "category": "American",
      "address": "249 W Main St, Branford",
      "phone": "203-488-5553",
      "website": "https://longleysct.com/",
      "image": "branford-logos/longleysblack.webp",
      "lat": 41.2771201,
      "lng": -72.8538095,
      "description": "An American restaurant on West Main Street serving breakfast, lunch, and comfort food favorites. A neighborhood staple on the west side of Branford."
    },
    {
      "name": "La Luna Ristorante",
      "category": "Italian",
      "address": "113 Main St, Branford",
      "phone": "203-483-9995",
      "website": "https://lalunact.com/",
      "image": "branford-logos/lalunahomere.webp",
      "lat": 41.2887868,
      "lng": -72.8127835,
      "description": "An upscale Italian restaurant on Main Street known for refined Italian cuisine and an elegant dining atmosphere. One of Branford's premier destinations for special-occasion Italian dining."
    },
    {
      "name": "Parthenon Diner Restaurant",
      "category": ["Greek", "American"],
      "address": "374 E Main St, Branford",
      "phone": "203-481-0333",
      "website": "https://www.parthenondiner.com/branford",
      "image": "branford-logos/DINER-2-2.webp",
      "darkBg": true,
      "lat": 41.2961874,
      "lng": -72.781473,
      "description": "A classic Greek and American diner on East Main Street serving a massive menu of breakfast, lunch, and dinner favorites. Known for generous portions, Greek specialties, and all-day breakfast."
    }
  ],
  "restaurants": [
    {"name": "1928 Cocktail Club", "category": "Wine Bar", "phone": "203-530-1600", "lat": 41.2818481, "lng": -72.8113738, "description": "A craft cocktail lounge in Branford offering curated drinks in a stylish, intimate setting. A go-to spot for nightlife and creative cocktails near the town center."},
    {"name": "9 East Hibachi & Asian Kitchen", "category": "Japanese", "phone": "203-488-8833", "lat": 41.2928039, "lng": -72.7890737, "description": "Japanese hibachi and Asian cuisine served on the east side of Branford. Features hibachi grill preparations alongside a menu of Asian-inspired dishes."},
    {"name": "Abe's Pizzeria", "category": "Pizza", "phone": "475-310-0161", "lat": 41.2908436, "lng": -72.7977869, "description": "A neighborhood pizzeria in Branford serving classic pies and Italian-American favorites."},
    {"name": "Archie Moore's", "category": "American", "phone": "203-481-6100", "lat": 41.2815657, "lng": -72.812127, "description": "A beloved pub known for their award-winning Buffalo wings and casual American bar food. A staple of Branford's social scene near the town center."},
    {"name": "Arturo's Restaurant", "category": "Italian & Mexican", "phone": "203-208-4106", "lat": 41.3026382, "lng": -72.7689363, "description": "A unique dual-cuisine restaurant offering both Italian and Mexican dishes in Branford's east end."},
    {"name": "Benny J's Pizza", "category": "Pizza", "phone": "203-208-2409", "lat": 41.2839964, "lng": -72.809672, "description": "A pizza shop near Branford Green serving hand-tossed pies and quick Italian bites."},
    {"name": "Branford Cue & Brew", "category": "American", "phone": "203-483-1388", "lat": 41.2825977, "lng": -72.8344332, "description": "An American restaurant combining barbecue, billiards, and craft brews in a laid-back atmosphere on the west side of Branford."},
    {"name": "Bui Vietnamese Cuisine", "category": "Vietnamese", "phone": "860-643-5006", "lat": 41.2927047, "lng": -72.8199338, "description": "Authentic Vietnamese restaurant in Branford serving pho, banh mi, and other traditional Vietnamese dishes. One of the few Vietnamese options on the CT shoreline."},
    {"name": "Burger King", "category": "Fast Food", "phone": "203-208-2816", "lat": 41.276468, "lng": -72.8358096, "description": "Fast-food chain location on Route 1 in Branford serving flame-grilled burgers and classic drive-through fare."},
    {"name": "Branford Beach Donut", "category": "Café & Bakery", "phone": "203-208-0625", "lat": 41.2919114, "lng": -72.7933615, "description": "A seasonal favorite near Short Beach, serving fresh donuts and breakfast treats. A popular stop for beachgoers and families during warmer months."},
    {"name": "Branford Pizza", "category": "Pizza", "phone": "203-481-7609", "lat": 41.2825787, "lng": -72.8226825, "description": "A longstanding local pizzeria on Main Street offering classic New Haven-style pizza and Italian staples."},
    {"name": "Breakfast Connections", "category": "American", "phone": "203-488-8898", "lat": 41.2839547, "lng": -72.8101698, "description": "A popular weekend brunch destination near Branford Green, serving hearty breakfast platters and classic American morning fare."},
    {"name": "Brother's Deli & Pizzeria", "category": "Pizza", "phone": "203-481-2433", "lat": 41.29658, "lng": -72.780854, "description": "A neighborhood deli and pizza shop on Branford's east side, offering subs, slices, and daily specials."},
    {"name": "Cafe Fiore", "category": "Italian", "phone": "203-208-4690", "lat": 41.2977256, "lng": -72.7778251, "description": "An Italian restaurant on the east side of Branford serving pasta, seafood, and classic Italian entrees."},
    {"name": "Capone's Pizza Bar", "category": "Pizza", "phone": "203-488-2900", "lat": 41.2928819, "lng": -72.7875183, "description": "A local favorite pizzeria in Branford known for its pies and casual bar atmosphere. One of the top pizza spots in the town center area."},
    {"name": "Chipotle Mexican Grill", "category": "Mexican", "phone": "203-315-1506", "lat": 41.2773114, "lng": -72.8283174, "description": "Fast-casual Mexican chain on Route 1 in Branford serving build-your-own burritos, bowls, and tacos."},
    {"name": "China Garden", "category": "Chinese", "phone": "203-488-8861", "lat": 41.2825534, "lng": -72.8108511, "description": "A Chinese restaurant near Branford Green offering traditional Cantonese and Szechuan dishes, plus takeout and delivery."},
    {"name": "Common Grounds", "category": "Café & Bakery", "phone": "203-488-2326", "lat": 41.2830594, "lng": -72.8106448, "description": "A cozy cafe near the Green offering coffee, light bites, and a welcoming atmosphere for locals looking to relax or work."},
    {"name": "Crostini", "category": "American", "phone": "203-488-1040", "lat": 41.2771027, "lng": -72.809547, "description": "An American eatery in Branford serving sandwiches, salads, and light fare in a casual setting."},
    {"name": "Darbar India", "category": "Indian", "phone": "203-481-8994", "lat": 41.2803926, "lng": -72.8086631, "description": "Authentic Indian restaurant near Branford Green featuring traditional curries, tandoori dishes, and a lunch buffet. One of two Indian dining options in town."},
    {"name": "Da'Carmine Pizzeria", "category": "Pizza", "phone": "203-481-3208", "lat": 41.2760312, "lng": -72.837798, "description": "A neighborhood pizzeria on the west side of Branford, known for classic Italian-American pies and takeout favorites."},
    {"name": "Dockside Seafood & Grill", "category": "Seafood", "phone": "203-488-3007", "lat": 41.2629862, "lng": -72.8075226, "enhanced": true, "website": "https://docksidebranford.com/", "description": "Fresh seafood restaurant at the Branford River marina, offering harbor views and a menu of locally sourced catches. A waterfront dining destination for casual seafood meals."},
    {"name": "Doma on Main", "category": "Italian", "phone": "203-208-0828", "lat": 41.2781974, "lng": -72.8179019, "description": "An Italian trattoria near the Town Green serving classic pasta dishes and Italian entrees in a warm, neighborhood setting."},
    {"name": "Domino's", "category": "Pizza", "phone": "203-488-6200", "lat": 41.2753651, "lng": -72.8343789, "description": "National pizza delivery chain with a Branford location on Route 1, offering delivery and carryout."},
    {"name": "Drea's by Goodfellas", "category": "Italian", "phone": "203-483-5599", "lat": 41.2852159, "lng": -72.809455, "description": "An Italian restaurant near the town center serving hearty Italian-American dishes in a casual, family-friendly setting."},
    {"name": "Dunkin'", "category": "Café & Bakery", "phone": "203-481-1434", "lat": 41.2865403, "lng": -72.8173217, "description": "Coffee and breakfast chain location on Main Street in Branford, serving donuts, coffee, and quick breakfast sandwiches."},
    {"name": "Eli's on the Hill", "category": "American", "phone": "203-488-2700", "lat": 41.2792908, "lng": -72.8419017, "description": "An American restaurant on the west side of Branford offering a full menu of pub fare, burgers, and comfort food in a relaxed atmosphere."},
    {"name": "Five Guys Burgers & Fries", "category": "Fast Food", "phone": "203-208-4167", "lat": 41.2760532, "lng": -72.8372694, "description": "Fast-casual burger chain on Route 1 in Branford, known for made-to-order burgers and hand-cut fries."},
    {"name": "Four Seasons Market", "category": "American", "phone": "203-483-4466", "lat": 41.275764, "lng": -72.836483, "description": "A neighborhood market and deli on Route 1 offering prepared foods, sandwiches, and grocery essentials."},
    {"name": "Fresh Greens & Proteins", "category": "American", "phone": "203-208-4398", "lat": 41.2757187, "lng": -72.8302241, "description": "A health-focused eatery on Route 1 serving salads, grain bowls, and protein-packed meals for quick, nutritious dining."},
    {"name": "G Cafe Bakery", "category": "Café & Bakery", "phone": "203-488-9996", "lat": 41.2816635, "lng": -72.8115446, "description": "A bakery and cafe near the Green offering fresh pastries, cakes, and light lunch options. A popular spot for morning treats and custom orders."},
    {"name": "Genaro's Restaurant & Pizza", "category": "Italian", "phone": "203-483-9397", "lat": 41.2584291, "lng": -72.8478616, "description": "An Italian restaurant and pizzeria in the Short Beach area of Branford, serving family-style Italian dishes and pizza."},
    {"name": "Geovanny's Deli", "category": "American", "phone": "203-208-2267", "lat": 41.278465514386035, "lng": -72.84227790238671, "description": "A neighborhood deli on the west side of Branford offering sandwiches, wraps, and quick meals for takeout."},
    {"name": "Grey Goat Farmtique", "category": "American", "phone": "203-315-7227", "lat": 41.2972327, "lng": -72.7801574, "description": "A farm-inspired eatery and shop on Branford's east side offering artisanal food products and light fare."},
    {"name": "Guacamole's Mexican Cuisine", "category": "Mexican", "phone": "203-481-4060", "lat": 41.2611709, "lng": -72.8006066, "description": "A Mexican restaurant in the Indian Neck area of Branford serving tacos, burritos, enchiladas, and other traditional Mexican dishes."},
    {"name": "Gourmet Wok", "category": "Chinese", "phone": "203-481-7988", "lat": 41.2944322, "lng": -72.7822008, "description": "A Chinese restaurant on Branford's east side offering a full menu of wok-prepared dishes, soups, and traditional Chinese favorites."},
    {"name": "GW Carson's", "category": "American", "phone": "203-208-1469", "lat": 41.2928425, "lng": -72.7892424, "description": "An American restaurant and bar on the east side of Branford serving classic pub fare and comfort food."},
    {"name": "Home Restaurant Branford", "category": "American", "phone": "203-483-5896", "lat": 41.2832616, "lng": -72.8103892, "description": "A casual American restaurant near the Green serving homestyle cooking and comfort food favorites."},
    {"name": "Honeyspot Pizza Branford", "category": "Pizza", "phone": "203-481-3354", "lat": 41.2781577, "lng": -72.8259078, "description": "A pizza shop on Main Street serving classic pies, grinders, and Italian-American takeout staples."},
    {"name": "Hornet's Nest Deli", "category": "American", "phone": "203-488-0717", "lat": 41.2921351, "lng": -72.7925349, "enhanced": true, "website": "https://www.hornetsnestdeli.com/", "description": "A popular deli on the east side of Branford known for oversized sandwiches, wraps, and daily specials. A local favorite for a quick and hearty lunch."},
    {"name": "IL Forno Restaurant", "category": "Italian", "phone": "203-315-0024", "lat": 41.2776292, "lng": -72.8398501, "description": "An Italian restaurant on Route 1 in Branford specializing in brick-oven preparations and traditional Italian cuisine."},
    {"name": "Indian Neck Pizza", "category": "Pizza", "phone": "203-488-2996", "lat": 41.2615991, "lng": -72.8007777, "description": "A neighborhood pizzeria serving the Indian Neck area of Branford with classic pies, grinders, and takeout favorites."},
    {"name": "Jalapeño Heaven", "category": "Mexican", "phone": "203-315-7336", "lat": 41.2804068, "lng": -72.8245344, "description": "A Mexican restaurant on Main Street offering tacos, burritos, and other south-of-the-border favorites in a casual setting."},
    {"name": "Jerry-San's Sushi", "category": "Japanese", "phone": "203-208-2169", "lat": 41.2790432, "lng": -72.8459526, "description": "A Japanese sushi restaurant on Route 1 in Branford offering fresh sushi rolls, sashimi, and Japanese specialties."},
    {"name": "Jersey Mike's Subs", "category": "Fast Food", "phone": "203-208-1444", "lat": 41.2762334, "lng": -72.838177, "description": "National sub sandwich chain on Route 1 in Branford, known for fresh-sliced deli subs made to order."},
    {"name": "Kamana Indian Cuisine", "category": "Indian", "phone": "203-689-5728", "lat": 41.2827441, "lng": -72.8108119, "description": "Authentic Indian restaurant near Branford Green serving curries, biryanis, and traditional Indian dishes. One of two Indian dining options in town alongside Darbar India."},
    {"name": "Kampai Japanese Restaurant", "category": "Japanese", "phone": "203-481-4536", "lat": 41.2766403, "lng": -72.8387161, "description": "A Japanese restaurant on Route 1 in Branford offering sushi, hibachi, and a full menu of Japanese dishes."},
    {"name": "La Luna Ristorante", "category": "Italian", "phone": "203-483-9995", "lat": 41.2887868, "lng": -72.8127835, "website": "https://lalunact.com/", "description": "An upscale Italian restaurant on Main Street known for refined Italian cuisine and an elegant dining atmosphere. One of Branford's premier destinations for special-occasion Italian dining."},
    {"name": "La Monaco's", "category": "Italian", "phone": "203-481-1120", "lat": 41.2758231, "lng": -72.8331658, "description": "An Italian restaurant on Route 1 serving classic Italian-American dishes and family-style meals."},
    {"name": "Lenny's Indian Head Inn", "category": "Seafood", "phone": "203-488-1500", "lat": 41.2614494, "lng": -72.8011704, "description": "A legendary Connecticut seafood institution on Linden Avenue, serving lobster rolls and fried clams to generations of shoreline families. A must-visit for classic New England seafood in the Indian Neck neighborhood."},
    {"name": "Lion City Chinese Restaurant", "category": "Chinese", "phone": "203-481-7474", "lat": 41.2927008, "lng": -72.8200132, "description": "A Chinese restaurant near Main Street in Branford offering a full menu of traditional Chinese cuisine and takeout options."},
    {"name": "Little Riggs", "category": "American", "phone": "203-499-7930", "lat": 41.2607742, "lng": -72.8012097, "description": "An American eatery in the Indian Neck area of Branford offering casual fare in a neighborhood setting."},
    {"name": "Little Pub", "category": "American", "phone": "203-208-4289", "lat": 41.2867895, "lng": -72.8169494, "description": "A casual American pub in Branford serving burgers, sandwiches, and pub-style comfort food. Part of a small Connecticut chain known for approachable dining."},
    {"name": "Lockworks Tavern", "category": "American", "phone": "860-331-8861", "lat": 41.2843177, "lng": -72.8110917, "description": "An American tavern near the Green offering craft beers, pub fare, and a relaxed social atmosphere in the heart of Branford."},
    {"name": "Longley's", "category": "American", "phone": "203-488-5553", "lat": 41.2771201, "lng": -72.8538095, "website": "https://longleysct.com/", "description": "An American restaurant on West Main Street serving breakfast, lunch, and comfort food favorites. A neighborhood staple on the west side of Branford."},
    {"name": "Marco Pizzeria", "category": "Pizza", "phone": "203-481-5551", "lat": 41.2921706, "lng": -72.788449, "description": "A pizzeria on the east side of Branford serving classic pizza pies and Italian-American favorites."},
    {"name": "Meadow Restaurant (Eel Pot)", "category": "American", "phone": "203-315-9351", "lat": 41.2757401, "lng": -72.8130339, "description": "An American restaurant near downtown Branford offering a casual dining experience with a varied menu."},
    {"name": "Mi Bella Restaurante", "category": "Italian", "phone": "203-208-4102", "lat": 41.2823826, "lng": -72.809691, "description": "An Italian restaurant near the Green serving pasta, entrees, and Italian-American cuisine in a welcoming setting."},
    {"name": "McDonald's", "category": "Fast Food", "phone": "203-481-3011", "lat": 41.2802068, "lng": -72.8480109, "description": "Fast-food chain location on Route 1 in Branford serving burgers, breakfast, and drive-through favorites."},
    {"name": "NEBCO Branford", "category": "American", "phone": "203-208-4525", "lat": 41.2748258, "lng": -72.8133801, "description": "The taproom for New England Brewing Company, serving their craft beers on tap alongside food in a brewery-adjacent setting. A destination for CT craft beer enthusiasts."},
    {"name": "Nellie's", "category": "Seafood", "phone": "203-208-0013", "lat": 41.2734727, "lng": -72.8137537, "description": "A seafood spot near the water in Branford, offering coastal fare and fresh catches in a casual setting."},
    {"name": "Nonna Gina's", "category": "Italian", "phone": "203-896-5700", "lat": 41.3068226, "lng": -72.7533309, "description": "An Italian restaurant on Branford's east end serving homestyle Italian cooking and family recipes."},
    {"name": "Owenego Inn", "category": "American", "phone": "203-488-3805", "lat": 41.2585387, "lng": -72.8012375, "description": "A seasonal waterfront dining spot in the charming Stony Creek village, offering American fare steps from the Thimble Island ferry dock."},
    {"name": "P&M Fine Foods", "category": "Italian", "phone": "203-488-7485", "lat": 41.2771462, "lng": -72.820251, "description": "An Italian specialty grocery and prepared foods shop on Main Street, known for quality deli meats, cheeses, and ready-to-eat Italian dishes. A go-to for Italian groceries and catering."},
    {"name": "Parthenon Diner Restaurant", "category": ["Greek", "American"], "phone": "203-481-0333", "lat": 41.2961874, "lng": -72.781473, "website": "https://www.parthenondiner.com/branford", "description": "A classic Greek and American diner on East Main Street serving a massive menu of breakfast, lunch, and dinner favorites. Known for generous portions, Greek specialties, and all-day breakfast."},
    {"name": "Pasta Cosi", "category": "Italian", "phone": "203-483-9397", "lat": 41.281982, "lng": -72.8113218, "description": "An Italian eatery near the Green specializing in fresh pasta dishes and Italian comfort food."},
    {"name": "Pearl Wine Bar", "category": "Wine Bar", "phone": "203-208-1329", "lat": 41.283506, "lng": -72.810276, "description": "An upscale wine bar near Branford Green offering a curated wine list alongside small plates and refined bites. One of Branford's more sophisticated evening destinations."},
    {"name": "Perkatory Coffee Roasters", "category": "Café & Bakery", "phone": "203-208-0600", "lat": 41.2926894, "lng": -72.8202762, "description": "A locally owned coffee roaster in Branford serving house-roasted specialty coffee, espresso drinks, and light bites. A favorite morning stop for serious coffee lovers."},
    {"name": "Popeyes", "category": "Fast Food", "phone": "203-481-0301", "lat": 41.2969227, "lng": -72.7592072, "description": "Fast-food chain location on Branford's east side serving Louisiana-style fried chicken and Cajun-inspired sides."},
    {"name": "Rosso Vino", "category": "Italian", "phone": "203-483-5599", "lat": 41.2583672, "lng": -72.8478789, "description": "An Italian restaurant in the Short Beach area offering wine-focused dining with Italian cuisine in a cozy setting."},
    {"name": "Rossitto's Ristorante", "category": "Italian", "phone": "203-483-9463", "lat": 41.2932305, "lng": -72.7919861, "description": "A classic Italian trattoria near the east side of Branford serving traditional pasta, veal, and seafood dishes. A longtime favorite for authentic Italian dining."},
    {"name": "Saltbrick Prime", "category": "American", "phone": "860-200-3763", "lat": 41.28435, "lng": -72.8113636, "description": "An upscale American steakhouse near the Green serving prime cuts, seafood, and craft cocktails. One of Branford's top fine-dining destinations."},
    {"name": "Shoreline Cafe and Catering", "category": "American", "phone": "203-481-4400", "lat": 41.2845508, "lng": -72.8094687, "description": "An American cafe near the Green offering breakfast, lunch, and catering services for events and gatherings."},
    {"name": "Shoreline Prime Meats & Deli", "category": "American", "phone": "203-208-1579", "lat": 41.2850762, "lng": -72.818045, "website": "https://shorelineprime.com", "image": "branford-logos/SPheadertrans.webp", "darkBg": true, "description": "A premium butcher shop and deli offering high-quality cuts of meat, deli sandwiches, and prepared foods. A go-to for home cooks and quick lunch options alike."},
    {"name": "SIAM Orchids Restaurant", "category": "Thai", "phone": "203-483-6993", "lat": 41.275657, "lng": -72.835385, "description": "An authentic Thai restaurant on Route 1 in Branford serving curries, pad thai, and traditional Thai dishes. The go-to spot for Thai cuisine on the Branford shoreline."},
    {"name": "Sky Diner", "category": "American", "phone": "203-315-7077", "lat": 41.2975381, "lng": -72.7644363, "description": "An American diner on the east side of Branford serving classic diner fare including breakfast, burgers, and comfort food."},
    {"name": "Stop & Go Deli", "category": "American", "phone": "203-208-4752", "lat": 41.2717734, "lng": -72.8196044, "description": "A quick-service deli in Branford offering sandwiches, snacks, and grab-and-go meals."},
    {"name": "Stony Creek Market", "category": "American", "phone": "203-488-0145", "lat": 41.2672916, "lng": -72.7510507, "description": "A neighborhood market in the charming Stony Creek village offering sandwiches, prepared foods, and essentials. A convenient stop for visitors exploring the Thimble Islands area."},
    {"name": "Subway", "category": "Fast Food", "phone": "203-488-6902", "lat": 41.2825952, "lng": -72.8226883, "description": "National sandwich chain with a Branford location on Main Street, offering customizable subs and wraps."},
    {"name": "Sushi Burrific", "category": "Japanese", "phone": "203-208-4918", "lat": 41.275957, "lng": -72.8335716, "description": "A Japanese fusion spot on Route 1 combining sushi and burrito concepts for a creative, quick-service dining experience."},
    {"name": "Taco Bell", "category": "Fast Food", "phone": "203-483-8801", "lat": 41.2761957, "lng": -72.8342995, "description": "Fast-food Mexican chain on Route 1 in Branford serving tacos, burritos, and late-night value meals."},
    {"name": "Takumi Sushi Ramen & Lounge", "category": "Japanese", "phone": "203-208-1207", "lat": 41.2764982, "lng": -72.8352148, "description": "A Japanese restaurant on Route 1 offering sushi, ramen bowls, and a lounge atmosphere. A popular choice for both quick ramen lunches and evening sushi dinners."},
    {"name": "Tasty Yolk", "category": "American", "phone": "203-488-2100", "lat": 41.2776462, "lng": -72.8180595, "description": "A popular breakfast and brunch spot on Main Street in Branford, serving egg dishes, pancakes, and hearty morning meals. A weekend brunch favorite."},
    {"name": "The Coffee Bean", "category": "Café & Bakery", "phone": "203-208-4154", "lat": 41.2762992, "lng": -72.838348, "description": "A coffee shop on Route 1 offering espresso drinks, teas, and a quick caffeine stop for commuters and locals."},
    {"name": "The Thimbleberry", "category": "American", "phone": "203-315-7222", "lat": 41.2651593, "lng": -72.7516543, "description": "A seasonal American eatery in the Stony Creek village, offering waterfront dining steps from the Thimble Island ferry dock. A charming spot for a meal while exploring the coastline."},
    {"name": "Tommy Sullivan's Cafe", "category": "American", "phone": "203-488-2229", "lat": 41.2909049, "lng": -72.8062212, "description": "A longtime American pub and cafe on Main Street, serving as a gathering place for Branford locals with casual fare and drinks."},
    {"name": "Townhouse Restaurant", "category": "Greek", "phone": "203-481-0550", "lat": 41.2785584, "lng": -72.8264914, "description": "A Greek restaurant on Main Street serving traditional Greek and American diner dishes. A Branford institution for classic Greek cuisine and hearty breakfasts."},
    {"name": "Wendy's", "category": "Fast Food", "phone": "203-488-9136", "lat": 41.2748836, "lng": -72.8324032, "description": "Fast-food chain on Route 1 in Branford serving burgers, chicken sandwiches, and Frosty desserts."}
  ],
  "categories": ["All", "American", "Café & Bakery", "Chinese", "Fast Food", "Greek", "Indian", "Italian", "Japanese", "Mexican", "Pizza", "Seafood", "Thai", "Vietnamese", "Wine Bar"]
}
