{
  "featured": [
    {
      "name": "Longley's",
      "category": "American",
      "address": "249 W Main St, Branford",
      "phone": "203-488-5553",
      "website": "https://longleysct.com/",
      "image": "branford-logos/longleysblack.png",
      "lat": 41.2771201,
      "lng": -72.8538095
    },
    {
      "name": "Dockside Seafood & Grill",
      "category": "Seafood",
      "address": "145 Block Island Rd, Branford",
      "phone": "203-488-3007",
      "website": "https://docksidebranford.com/",
      "image": "branford-logos/docksidelogoweb-300x150.png",
      "lat": 41.2629862,
      "lng": -72.8075226
    },
    {
      "name": "La Luna Ristorante",
      "category": "Italian",
      "address": "113 Main St, Branford",
      "phone": "203-483-9995",
      "website": "https://lalunact.com/",
      "image": "branford-logos/lalunahomere.png",
      "lat": 41.2887868,
      "lng": -72.8127835
    },
    {
      "name": "Hornet's Nest Deli",
      "category": "American",
      "address": "208 Main St, Branford",
      "phone": "203-488-0717",
      "website": "https://www.hornetsnestdeli.com/",
      "image": "branford-logos/HS-without-Branford.png",
      "lat": 41.2921351,
      "lng": -72.7925349
    },
    {
      "name": "Parthenon Diner Restaurant",
      "category": "Greek",
      "address": "374 E Main St, Branford",
      "phone": "203-481-0333",
      "website": "https://parthenondiner.com/",
      "image": "branford-logos/DINER-2-2.webp",
      "darkBg": true,
      "lat": 41.2961874,
      "lng": -72.781473
    }
  ],
  "restaurants": [
    {"name": "1928 Cocktail Club", "category": "Wine Bar", "phone": "203-530-1600", "lat": 41.2818481, "lng": -72.8113738},
    {"name": "9 East Hibachi & Asian Kitchen", "category": "Japanese", "phone": "203-488-8833", "lat": 41.2928039, "lng": -72.7890737},
    {"name": "Archie Moore's", "category": "American", "phone": "203-481-6100", "lat": 41.2815657, "lng": -72.812127},
    {"name": "Arturo's Restaurant", "category": "Italian & Mexican", "phone": "203-208-4106", "lat": 41.3026382, "lng": -72.7689363},
    {"name": "Benny J's Pizza", "category": "Pizza", "phone": "203-208-2409", "lat": 41.2839964, "lng": -72.809672},
    {"name": "Branford Cue & Brew", "category": "American", "phone": "203-483-1388", "lat": 41.2825977, "lng": -72.8344332},
    {"name": "Bui Vietnamese Cuisine", "category": "Vietnamese", "phone": "860-643-5006", "lat": 41.2927047, "lng": -72.8199338},
    {"name": "Burger King", "category": "Fast Food", "phone": "203-208-2816", "lat": 41.276468, "lng": -72.8358096},
    {"name": "Branford Beach Donut", "category": "Café & Bakery", "phone": "203-208-0625", "lat": 41.2919114, "lng": -72.7933615},
    {"name": "Branford Pizza", "category": "Pizza", "phone": "203-481-7609", "lat": 41.2825787, "lng": -72.8226825},
    {"name": "Breakfast Connections", "category": "American", "phone": "203-488-8898", "lat": 41.2839547, "lng": -72.8101698},
    {"name": "Brother's Deli & Pizzeria", "category": "Pizza", "phone": "203-481-2433", "lat": 41.29658, "lng": -72.780854},
    {"name": "Cafe Fiore", "category": "Italian", "phone": "203-208-4690", "lat": 41.2977256, "lng": -72.7778251},
    {"name": "Capone's Pizza Bar", "category": "Pizza", "phone": "203-488-2900", "lat": 41.2928819, "lng": -72.7875183},
    {"name": "Chipotle Mexican Grill", "category": "Mexican", "phone": "203-315-1506", "lat": 41.2773114, "lng": -72.8283174},
    {"name": "China Garden", "category": "Chinese", "phone": "203-488-8861", "lat": 41.2825534, "lng": -72.8108511},
    {"name": "Common Grounds", "category": "Café & Bakery", "phone": "203-488-2326", "lat": 41.2830594, "lng": -72.8106448},
    {"name": "Crostini", "category": "American", "phone": "203-488-1040", "lat": 41.2771027, "lng": -72.809547},
    {"name": "Darbar India", "category": "Indian", "phone": "203-481-8994", "lat": 41.2803926, "lng": -72.8086631},
    {"name": "Da'Carmine Pizzeria", "category": "Pizza", "phone": "203-481-3208", "lat": 41.2760312, "lng": -72.837798},
    {"name": "Dockside Seafood & Grill", "category": "Seafood", "phone": "203-488-3007", "lat": 41.2629862, "lng": -72.8075226},
    {"name": "Doma on Main", "category": "Italian", "phone": "203-208-0828", "lat": 41.2781974, "lng": -72.8179019},
    {"name": "Domino's", "category": "Pizza", "phone": "203-488-6200", "lat": 41.2753651, "lng": -72.8343789},
    {"name": "Drea's by Goodfellas", "category": "Italian", "phone": "203-483-5599", "lat": 41.2852159, "lng": -72.809455},
    {"name": "Dunkin'", "category": "Café & Bakery", "phone": "203-481-1434", "lat": 41.2865403, "lng": -72.8173217},
    {"name": "Eli's on the Hill", "category": "American", "phone": "203-488-2700", "lat": 41.2792908, "lng": -72.8419017},
    {"name": "Five Guys Burgers & Fries", "category": "Fast Food", "phone": "203-208-4167", "lat": 41.2760532, "lng": -72.8372694},
    {"name": "Four Seasons Market", "category": "American", "phone": "203-483-4466", "lat": 41.275764, "lng": -72.836483},
    {"name": "Fresh Greens & Proteins", "category": "American", "phone": "203-208-4398", "lat": 41.2757187, "lng": -72.8302241},
    {"name": "G Cafe Bakery", "category": "Café & Bakery", "phone": "203-488-9996", "lat": 41.2816635, "lng": -72.8115446},
    {"name": "G&P Pizza Deli Convenience", "category": "Pizza", "phone": "475-310-0161", "lat": 41.2908436, "lng": -72.7977869},
    {"name": "Genaro's Restaurant & Pizza", "category": "Italian", "phone": "203-483-9397", "lat": 41.2584291, "lng": -72.8478616},
    {"name": "Geovanny's Deli", "category": "American", "phone": "203-208-2267", "lat": 41.281, "lng": -72.811},
    {"name": "Grey Goat Farmtique", "category": "American", "phone": "203-315-7227", "lat": 41.2972327, "lng": -72.7801574},
    {"name": "Guacamole's Mexican Cuisine", "category": "Mexican", "phone": "203-481-4060", "lat": 41.2611709, "lng": -72.8006066},
    {"name": "Gourmet Wok", "category": "Chinese", "phone": "203-481-7988", "lat": 41.2944322, "lng": -72.7822008},
    {"name": "GW Carson's", "category": "American", "phone": "203-208-1469", "lat": 41.2928425, "lng": -72.7892424},
    {"name": "Home Restaurant Branford", "category": "American", "phone": "203-483-5896", "lat": 41.2832616, "lng": -72.8103892},
    {"name": "Honeyspot Pizza Branford", "category": "Pizza", "phone": "203-481-3354", "lat": 41.2781577, "lng": -72.8259078},
    {"name": "Hornet's Nest Deli", "category": "American", "phone": "203-488-0717", "lat": 41.2921351, "lng": -72.7925349},
    {"name": "IL Forno Restaurant", "category": "Italian", "phone": "203-315-0024", "lat": 41.2776292, "lng": -72.8398501},
    {"name": "Indian Neck Pizza", "category": "Pizza", "phone": "203-488-2996", "lat": 41.2615991, "lng": -72.8007777},
    {"name": "Jalapeño Heaven", "category": "Mexican", "phone": "203-315-7336", "lat": 41.2804068, "lng": -72.8245344},
    {"name": "Jerry-San's Sushi", "category": "Japanese", "phone": "203-208-2169", "lat": 41.2790432, "lng": -72.8459526},
    {"name": "Jersey Mike's Subs", "category": "Fast Food", "phone": "203-208-1444", "lat": 41.2762334, "lng": -72.838177},
    {"name": "Kamana Indian Cuisine", "category": "Indian", "phone": "203-689-5728", "lat": 41.2827441, "lng": -72.8108119},
    {"name": "Kampai Japanese Restaurant", "category": "Japanese", "phone": "203-481-4536", "lat": 41.2766403, "lng": -72.8387161},
    {"name": "La Luna Ristorante", "category": "Italian", "phone": "203-483-9995", "lat": 41.2887868, "lng": -72.8127835},
    {"name": "La Monaco's", "category": "Italian", "phone": "203-481-1120", "lat": 41.2758231, "lng": -72.8331658},
    {"name": "Lenny's Indian Head Inn", "category": "Seafood", "phone": "203-488-1500", "lat": 41.2614494, "lng": -72.8011704},
    {"name": "Lion City Chinese Restaurant", "category": "Chinese", "phone": "203-481-7474", "lat": 41.2927008, "lng": -72.8200132},
    {"name": "Little Riggs", "category": "American", "phone": "203-499-7930", "lat": 41.2607742, "lng": -72.8012097},
    {"name": "Little Pub", "category": "American", "phone": "203-208-4289", "lat": 41.2867895, "lng": -72.8169494},
    {"name": "Lockworks Tavern", "category": "American", "phone": "860-331-8861", "lat": 41.2843177, "lng": -72.8110917},
    {"name": "Longley's", "category": "American", "phone": "203-488-5553", "lat": 41.2771201, "lng": -72.8538095},
    {"name": "Marco Pizzeria", "category": "Pizza", "phone": "203-481-5551", "lat": 41.2921706, "lng": -72.788449},
    {"name": "Meadow Restaurant (Eel Pot)", "category": "American", "phone": "203-315-9351", "lat": 41.2757401, "lng": -72.8130339},
    {"name": "Mi Bella Restaurante", "category": "Italian", "phone": "203-208-4102", "lat": 41.2823826, "lng": -72.809691},
    {"name": "McDonald's", "category": "Fast Food", "phone": "203-481-3011", "lat": 41.2802068, "lng": -72.8480109},
    {"name": "NEBCO Branford", "category": "American", "phone": "203-208-4525", "lat": 41.2748258, "lng": -72.8133801},
    {"name": "Nellie's", "category": "Seafood", "phone": "203-208-0013", "lat": 41.2734727, "lng": -72.8137537},
    {"name": "Nonna Gina's", "category": "Italian", "phone": "203-896-5700", "lat": 41.3068226, "lng": -72.7533309},
    {"name": "Owenego Inn", "category": "American", "phone": "203-488-3805", "lat": 41.2585387, "lng": -72.8012375},
    {"name": "P&M Fine Foods", "category": "Italian", "phone": "203-488-7485", "lat": 41.2771462, "lng": -72.820251},
    {"name": "Parthenon Diner Restaurant", "category": "Greek", "phone": "203-481-0333", "lat": 41.2961874, "lng": -72.781473},
    {"name": "Pasta Cosi", "category": "Italian", "phone": "203-483-9397", "lat": 41.281982, "lng": -72.8113218},
    {"name": "Pearl Wine Bar", "category": "Wine Bar", "phone": "203-208-1329", "lat": 41.283506, "lng": -72.810276},
    {"name": "Perkatory Coffee Roasters", "category": "Café & Bakery", "phone": "203-208-0600", "lat": 41.2926894, "lng": -72.8202762},
    {"name": "Popeyes", "category": "Fast Food", "phone": "203-481-0301", "lat": 41.2969227, "lng": -72.7592072},
    {"name": "Rosso Vino", "category": "Italian", "phone": "203-483-5599", "lat": 41.2583672, "lng": -72.8478789},
    {"name": "Rossitto's Ristorante", "category": "Italian", "phone": "203-483-9463", "lat": 41.2932305, "lng": -72.7919861},
    {"name": "Saltbrick Prime", "category": "American", "phone": "860-200-3763", "lat": 41.28435, "lng": -72.8113636},
    {"name": "Shoreline Cafe and Catering", "category": "American", "phone": "203-481-4400", "lat": 41.2845508, "lng": -72.8094687},
    {"name": "Shoreline Prime Meats & Deli", "category": "American", "phone": "203-208-1579", "lat": 41.2850762, "lng": -72.818045},
    {"name": "SIAM Orchids Restaurant", "category": "Thai", "phone": "203-483-6993", "lat": 41.275657, "lng": -72.835385},
    {"name": "Sky Diner", "category": "American", "phone": "203-315-7077", "lat": 41.2975381, "lng": -72.7644363},
    {"name": "Stand", "category": "American", "phone": "203-488-3354", "lat": 41.2622639, "lng": -72.8008361},
    {"name": "Stop & Go Deli", "category": "American", "phone": "203-208-4752", "lat": 41.2717734, "lng": -72.8196044},
    {"name": "Stony Creek Market", "category": "American", "phone": "203-488-0145", "lat": 41.2672916, "lng": -72.7510507},
    {"name": "Subway", "category": "Fast Food", "phone": "203-488-6902", "lat": 41.2825952, "lng": -72.8226883},
    {"name": "Sushi Burrific", "category": "Japanese", "phone": "203-208-4918", "lat": 41.275957, "lng": -72.8335716},
    {"name": "Taco Bell", "category": "Fast Food", "phone": "203-483-8801", "lat": 41.2761957, "lng": -72.8342995},
    {"name": "Takumi Sushi Ramen & Lounge", "category": "Japanese", "phone": "203-208-1207", "lat": 41.2764982, "lng": -72.8352148},
    {"name": "Tasty Yolk", "category": "American", "phone": "203-488-2100", "lat": 41.2776462, "lng": -72.8180595},
    {"name": "The Coffee Bean", "category": "Café & Bakery", "phone": "203-208-4154", "lat": 41.2762992, "lng": -72.838348},
    {"name": "The Thimbleberry", "category": "American", "phone": "203-315-7222", "lat": 41.2651593, "lng": -72.7516543},
    {"name": "Tommy Sullivan's Cafe", "category": "American", "phone": "203-488-2229", "lat": 41.2909049, "lng": -72.8062212},
    {"name": "Townhouse Restaurant", "category": "Greek", "phone": "203-481-0550", "lat": 41.2785584, "lng": -72.8264914},
    {"name": "Wendy's", "category": "Fast Food", "phone": "203-488-9136", "lat": 41.2748836, "lng": -72.8324032},
    {"name": "Willoughby's Coffee and Tea", "category": "Café & Bakery", "phone": "203-481-1700", "lat": 41.2993747, "lng": -72.7667601}
  ],
  "categories": ["All", "American", "Italian", "Mexican", "Indian", "Chinese", "Thai", "Japanese", "Vietnamese", "Seafood", "Greek", "Café & Bakery", "Pizza", "Wine Bar", "Fast Food"]
}
