{
  "featured": [],
  "restaurants": [
    {"name": "Beach Donut Shop", "category": "Cafe & Bakery", "phone": "860-664-5058", "lat": 41.272943, "lng": -72.488774},
    {"name": "Bella Maria Pizzeria", "category": "Pizza", "phone": "860-669-4447", "lat": 41.306418, "lng": -72.526316},
    {"name": "Cafe Nola", "category": "Cafe & Bakery", "phone": "860-669-0776", "lat": 41.278487, "lng": -72.5278803},
    {"name": "Chamard Vineyards Bistro", "category": "American", "phone": "860-664-0299", "lat": 41.3012774, "lng": -72.5446935},
    {"name": "Chips Pub", "category": "American", "phone": "860-669-2231", "lat": 41.2784386, "lng": -72.5289306},
    {"name": "Ciao Food & Beverage", "category": "American", "phone": "860-552-4135", "lat": 41.2955188, "lng": -72.5326935},
    {"name": "Coffee Break Restaurant", "category": "Cafe & Bakery", "phone": "860-669-1517", "lat": 41.2786298, "lng": -72.525457},
    {"name": "Cold Stone Creamery", "category": "Dessert", "phone": "860-669-7025", "lat": 41.2891634, "lng": -72.5281093},
    {"name": "Domino's", "category": "Pizza", "phone": "860-552-4829", "lat": 41.2702473, "lng": -72.5004858},
    {"name": "Dunkin'", "category": "Cafe & Bakery", "phone": "860-669-8050", "lat": 41.273124, "lng": -72.5066448},
    {"name": "Golden China", "category": "Chinese", "phone": "860-664-4589", "lat": 41.2701677, "lng": -72.5011921},
    {"name": "Grand Apizza Shoreline", "category": "Pizza", "phone": "860-669-1204", "lat": 41.2787915, "lng": -72.5266707},
    {"name": "Great Wall Chinese Restaurant", "category": "Chinese", "phone": "860-664-4110", "lat": 41.2768627, "lng": -72.5371908},
    {"name": "Hanami Japanese Restaurant", "category": "Japanese", "phone": "860-669-8288", "lat": 41.2758958, "lng": -72.5177411},
    {"name": "J+M Dockside", "category": "Seafood", "phone": "860-669-5388", "lat": 41.2692208, "lng": -72.5298168},
    {"name": "Jersey Mike's", "category": "Fast Food", "phone": "860-552-2050", "lat": 41.2894069, "lng": -72.5283124},
    {"name": "Land of Thai", "category": "Thai", "phone": "860-552-4444", "lat": 41.2734314, "lng": -72.4872481},
    {"name": "Lobster Landing", "category": "Seafood", "phone": "860-669-2005", "lat": 41.2690161, "lng": -72.5281545},
    {"name": "Log Cabin Restaurant", "category": "American", "phone": "860-669-6253", "lat": 41.271638, "lng": -72.505166},
    {"name": "Masa Sushi", "category": "Japanese", "phone": "860-744-8895", "lat": 41.2779531, "lng": -72.5364799},
    {"name": "McDonald's", "category": "Fast Food", "phone": "860-669-0074", "lat": 41.2774006, "lng": -72.5382331},
    {"name": "Nataz", "category": "Fine Dining", "phone": "860-669-2272", "lat": 41.2787704, "lng": -72.5272827},
    {"name": "Palmieri's Pizzeria", "category": "Pizza", "phone": "860-669-2275", "lat": 41.27948, "lng": -72.5322113},
    {"name": "Pica Chica Tacos", "category": "Mexican", "phone": "860-552-6916", "lat": 41.278615, "lng": -72.534278},
    {"name": "Rockys Aqua", "category": "Seafood", "phone": "860-664-3777", "lat": 41.2688604, "lng": -72.5311585},
    {"name": "Saldamarco's Deli", "category": "Italian", "phone": "860-669-3469", "lat": 41.2770196, "lng": -72.5200739},
    {"name": "Scottish Dave's Pub", "category": "American", "phone": "860-552-4727", "lat": 41.2783105, "lng": -72.5254972},
    {"name": "Shanks", "category": "Seafood", "phone": "860-664-4100", "lat": 41.2691075, "lng": -72.5284301},
    {"name": "Starbucks", "category": "Cafe & Bakery", "phone": "860-744-0010", "lat": 41.28982, "lng": -72.5291},
    {"name": "Subway", "category": "Fast Food", "phone": "860-669-2535", "lat": 41.2769364, "lng": -72.5371671},
    {"name": "Taste of China", "category": "Chinese", "phone": "860-664-4454", "lat": 41.2718778, "lng": -72.5041278},
    {"name": "Westbrook Lobster", "category": "Seafood", "phone": "860-664-9464", "lat": 41.2731539, "lng": -72.4879906}
  ],
  "categories": ["All", "American", "Cafe & Bakery", "Chinese", "Dessert", "Fast Food", "Fine Dining", "Italian", "Japanese", "Mexican", "Pizza", "Seafood", "Thai"]
}
