{
  "featured": [
    {
      "name": "La Luna Ristorante",
      "category": "Italian",
      "town": "Branford",
      "address": "113 Main St, Branford",
      "phone": "203-483-9995",
      "website": "https://lalunact.com/",
      "image": "branford-logos/lalunahomere.webp",
      "pageLink": "branford.html",
      "lat": 41.28935156467897,
      "lng": -72.81280428222095
    },
    {
      "name": "Longley's",
      "category": "American",
      "town": "Branford",
      "address": "249 W Main St, Branford",
      "phone": "203-488-5553",
      "website": "https://longleysct.com/",
      "image": "branford-logos/longleysblack.webp",
      "pageLink": "branford.html",
      "lat": 41.27733376959013,
      "lng": -72.85373976256747
    },
    {
      "name": "Mexitale",
      "category": "Mexican",
      "town": "Guilford",
      "address": "1080 Boston Post Rd, Guilford",
      "phone": "475-223-6083",
      "website": "https://mexitalekitchen.com/",
      "image": "guilford-logos/Mexitale-web-1.webp",
      "pageLink": "guilford.html",
      "lat": 41.30850266494618,
      "lng": -72.7192274202633
    },
    {
      "name": "Parthenon Diner Restaurant",
      "category": ["Greek", "American"],
      "town": "Branford",
      "address": "374 E Main St, Branford",
      "phone": "203-481-0333",
      "website": "https://www.parthenondiner.com/branford",
      "image": "branford-logos/DINER-2-2.webp",
      "darkBg": true,
      "bgColor": "#5a0a0a",
      "pageLink": "branford.html",
      "lat": 41.296517886253156,
      "lng": -72.78165539020812
    },
    {
      "name": "Parthenon Diner Restaurant",
      "category": ["Greek", "American"],
      "town": "Old Saybrook",
      "address": "869 Boston Post Rd, Old Saybrook",
      "phone": "860-388-3533",
      "website": "https://www.parthenondiner.com/old-saybrook",
      "image": "branford-logos/DINER-2-2.webp",
      "darkBg": true,
      "pageLink": "old-saybrook.html",
      "lat": 41.29256948653025,
      "lng": -72.38376819510408
    }
  ]
}
