{
  "featured": [
    {
      "name": "Mexitale",
      "category": "Mexican",
      "address": "1080 Boston Post Rd, Guilford",
      "phone": "475-223-6083",
      "website": "https://mexitalekitchen.com/",
      "image": "guilford-logos/Mexitale-web-1.webp",
      "lat": 41.3080171,
      "lng": -72.7192757
    }
  ],
  "restaurants": [
    {"name": "Anthony's of Guilford", "category": "Italian", "phone": "203-453-4121", "lat": 41.3077569, "lng": -72.721568},
    {"name": "Ashley's Ice Cream", "category": "Dessert", "phone": "203-458-3040", "lat": 41.2880508, "lng": -72.6806107},
    {"name": "Belle Vie Cafe", "category": "Cafe", "phone": "203-453-4350", "lat": 41.2848395, "lng": -72.682952},
    {"name": "Bufalina", "category": "Italian", "phone": "203-453-5900", "lat": 41.2876396, "lng": -72.6852187},
    {"name": "Carpanzano's Pizzeria", "category": "Pizza", "phone": "203-453-7040", "lat": 41.2873308, "lng": -72.6895917},
    {"name": "Char & Lemon", "category": "Italian", "phone": "203-533-7074", "website": "https://charandlemon.com/guilford", "lat": 41.281193, "lng": -72.68165},
    {"name": "Chapter One Food & Drink", "category": "American", "phone": "203-453-5133", "lat": 41.283247, "lng": -72.6830559},
    {"name": "Cilantro Specialty Foods", "category": "Mexican", "phone": "203-458-2555", "lat": 41.281309, "lng": -72.6819644},
    {"name": "Country Tavern", "category": "American", "phone": "203-453-9205", "lat": 41.3065229, "lng": -72.7020728},
    {"name": "Dairy Queen", "category": "Fast Food", "phone": "203-453-9509", "lat": 41.2882955, "lng": -72.6632819},
    {"name": "Deke's Bagels", "category": "Cafe", "phone": "203-533-7642", "lat": 41.2883981, "lng": -72.6834369},
    {"name": "Deli Unlimited", "category": "Deli", "phone": "203-453-2473", "lat": 41.2878762, "lng": -72.6863021},
    {"name": "Dunkin'", "category": "Cafe", "phone": "203-458-8811", "lat": 41.2884262, "lng": -72.6663523},
    {"name": "First Garden", "category": "Chinese", "phone": "203-458-2145", "lat": 41.28888, "lng": -72.660182},
    {"name": "Grand Apizza", "category": "Pizza", "phone": "203-533-7255", "lat": 41.2889111, "lng": -72.6603861},
    {"name": "Guilford Bistro & Bar", "category": "American", "phone": "203-458-8444", "lat": 41.2879127, "lng": -72.6832522},
    {"name": "Hen & Heifer", "category": "Bakery", "phone": "203-689-5651", "lat": 41.2809735, "lng": -72.6828401},
    {"name": "I Thai", "category": "Thai", "phone": "203-533-5060", "lat": 41.2873458, "lng": -72.689653},
    {"name": "JAIPORE Xpress", "category": "Indian", "phone": "203-458-8988", "lat": 41.2813165, "lng": -72.6834369},
    {"name": "Jersey Mike's Subs", "category": "Deli", "phone": "203-533-6474", "lat": 41.287649, "lng": -72.677978},
    {"name": "Kamana", "category": "Indian", "phone": "203-689-5728", "lat": 41.2879955, "lng": -72.6828754},
    {"name": "KC's Restaurant and Pub", "category": "American", "phone": "203-453-3200", "lat": 41.289489, "lng": -72.6726943},
    {"name": "Lorenzo's II", "category": "Italian", "phone": "203-457-9111", "lat": 41.3524633, "lng": -72.6954215},
    {"name": "McDonald's", "category": "Fast Food", "phone": "203-453-4640", "lat": 41.289185, "lng": -72.6689619},
    {"name": "Mexitale", "category": "Mexican", "phone": "475-223-6083", "lat": 41.3080171, "lng": -72.7192757, "website": "https://mexitalekitchen.com/"},
    {"name": "Moon Shots Juice Co.", "category": "Cafe", "phone": "203-689-5665", "lat": 41.2882084, "lng": -72.6852267},
    {"name": "Mooyah Burgers", "category": "American", "phone": "203-689-5115", "lat": 41.3009469, "lng": -72.7080014},
    {"name": "Mr. J Asian Bistro", "category": "Asian", "phone": "203-453-3355", "lat": 41.2885089, "lng": -72.6747531},
    {"name": "Naples Restaurant & Pizza", "category": "Pizza", "phone": "203-453-4080", "lat": 41.2879048, "lng": -72.6773565},
    {"name": "New Star", "category": "Chinese", "phone": "203-689-5653", "lat": 41.2873339, "lng": -72.689629},
    {"name": "Pa's Place", "category": "American", "phone": "203-453-0800", "lat": 41.2729792, "lng": -72.6658782},
    {"name": "Panera Bread", "category": "Cafe", "phone": "203-204-0097", "lat": 41.301712, "lng": -72.7086531},
    {"name": "Pasta Avest & Pizzeria", "category": "Italian", "phone": "203-453-4549", "lat": 41.2886218, "lng": -72.6712023},
    {"name": "Playa Bowls", "category": "Cafe", "phone": "203-533-7017", "lat": 41.3011576, "lng": -72.7077533},
    {"name": "Pokemoto", "category": "Asian", "phone": "203-533-7672", "lat": 41.2882185, "lng": -72.6853537},
    {"name": "Prime on Whitfield", "category": "Steakhouse", "phone": "203-533-8001", "lat": 41.2818602, "lng": -72.6823977},
    {"name": "Quattro's", "category": "Italian", "phone": "203-453-6575", "lat": 41.2808333, "lng": -72.6822222},
    {"name": "Sheppard's Tavern", "category": "Bar", "phone": "203-458-7477", "lat": 41.2811125, "lng": -72.682312},
    {"name": "Shoreline Diner", "category": "American", "phone": "203-458-7380", "lat": 41.2887055, "lng": -72.6587531},
    {"name": "Som Siam", "category": "Thai", "phone": "203-453-2822", "lat": 41.2817645, "lng": -72.6826875},
    {"name": "South Lane Bistro", "category": "American", "phone": "203-533-8049", "lat": 41.2818811, "lng": -72.6827128},
    {"name": "Starbucks", "category": "Cafe", "phone": "203-458-8050", "lat": 41.28723, "lng": -72.67883},
    {"name": "Subway", "category": "Fast Food", "phone": "203-458-9000", "lat": 41.2879979, "lng": -72.6802593},
    {"name": "The Brownstone", "category": "American", "phone": "203-453-9844", "lat": 41.2886734, "lng": -72.6814117},
    {"name": "The Greenery", "category": "American", "phone": "203-453-5262", "lat": 41.2844456, "lng": -72.682706},
    {"name": "The Place", "category": "Seafood", "phone": "203-453-9276", "lat": 41.28878, "lng": -72.6788358},
    {"name": "The Whole Enchilada", "category": "Mexican", "phone": "203-453-2300", "lat": 41.2889, "lng": -72.6602528},
    {"name": "Three Girls Vegan", "category": "Vegan", "phone": "203-453-0053", "lat": 41.2893532, "lng": -72.6697118},
    {"name": "Wendy's", "category": "Fast Food", "phone": "203-453-9271", "lat": 41.2882895, "lng": -72.6671617}
  ],
  "categories": ["All", "American", "Asian", "Bakery", "Bar", "Cafe", "Chinese", "Deli", "Dessert", "Fast Food", "Indian", "Italian", "Mexican", "Pizza", "Seafood", "Steakhouse", "Thai", "Vegan"]
}
