{
  "featured": [],
  "restaurants": [
    {"name": "AJ Seaside Grill", "category": "American", "phone": "203-245-6867", "seasonal": true, "lat": 41.272526, "lng": -72.6158741},
    {"name": "Amato's Pizza & Pasta", "category": "Pizza", "phone": "203-421-6331", "lat": 41.3045517, "lng": -72.6049815},
    {"name": "Ashley's Ice Cream", "category": "Dessert", "phone": "203-245-1113", "lat": 41.2792633, "lng": -72.5958458},
    {"name": "Bar Bouchee", "category": "French", "phone": "203-318-8555", "lat": 41.2792116, "lng": -72.5893744},
    {"name": "Bradley & Wall", "category": "American", "phone": "203-318-0300", "lat": 41.2827343, "lng": -72.5932404},
    {"name": "Brother Mike's", "category": "American", "phone": "203-245-6161", "lat": 41.2828306, "lng": -72.6008408},
    {"name": "Cafe Allegre", "category": "Italian", "phone": "203-245-7773", "lat": 41.2798556, "lng": -72.5958861},
    {"name": "Chef Paul Baron", "category": "American", "phone": "203-779-5713", "lat": 41.2795646, "lng": -72.592494},
    {"name": "Circle Pizza", "category": "Pizza", "phone": "203-421-3434", "lat": 41.3588889, "lng": -72.6377778},
    {"name": "Clam Castle", "category": "Seafood", "phone": "203-245-4911", "lat": 41.274112, "lng": -72.5531627},
    {"name": "Cohen's Bagel Company", "category": "Cafe & Bakery", "phone": "203-318-5090", "lat": 41.2748488, "lng": -72.5503578},
    {"name": "Comomango", "category": "Mexican", "phone": "203-245-7005", "lat": 41.281405, "lng": -72.5937486},
    {"name": "Cristy's Madison", "category": "American", "phone": "203-245-7377", "lat": 41.2720444, "lng": -72.6076622},
    {"name": "CT's Roadside BBQ", "category": "BBQ", "phone": "203-245-2676", "seasonal": true, "lat": 41.2737742, "lng": -72.5660808},
    {"name": "Donahue's Madison Beach Grille", "category": "Seafood", "phone": "203-245-8440", "lat": 41.2741275, "lng": -72.5537103},
    {"name": "Dunkin'", "category": "Cafe & Bakery", "phone": "203-245-1414", "lat": 41.2745997, "lng": -72.5537729},
    {"name": "Fat Duck Tavern", "category": "American", "phone": "203-245-3825", "lat": 41.2854629, "lng": -72.6433923},
    {"name": "Friends & Company", "category": "American", "phone": "203-245-0462", "lat": 41.2859264, "lng": -72.6462228},
    {"name": "Grand Apizza", "category": "Pizza", "phone": "203-245-8438", "lat": 41.2794455, "lng": -72.5956516},
    {"name": "Great Wall", "category": "Chinese", "phone": "203-421-4240", "lat": 41.3595516, "lng": -72.6361443},
    {"name": "Hometown Bakery", "category": "Cafe & Bakery", "phone": "203-245-9003"},
    {"name": "Iron Chef Sushi", "category": "Japanese", "phone": "203-421-6757", "lat": 41.2798428, "lng": -72.5951963},
    {"name": "James Madison House", "category": "American", "phone": "203-245-0200", "lat": 41.3596039, "lng": -72.6355649},
    {"name": "Jersey Mike's", "category": "American", "phone": "203-350-0125", "lat": 41.280039, "lng": -72.5982692},
    {"name": "Jia Mei Asian Kitchen", "category": "Asian", "phone": "203-245-8898", "lat": 41.2833067, "lng": -72.5937536},
    {"name": "Lenny & Joe's Fish Tale", "category": "Seafood", "phone": "203-245-7289", "lat": 41.2745805, "lng": -72.5551207},
    {"name": "Life Bowls", "category": "Cafe & Bakery", "phone": "203-421-4647", "lat": 41.279823, "lng": -72.5953375},
    {"name": "Madison Beach Hotel", "category": "American", "phone": "203-245-1404", "lat": 41.2709877, "lng": -72.6082786},
    {"name": "McDonald's", "category": "Fast Food", "phone": "203-245-8887", "lat": 41.29192, "lng": -72.58013},
    {"name": "Meriano's Bakery & Cannoli Truck", "category": "Cafe & Bakery", "phone": "203-779-5812", "lat": 41.281047, "lng": -72.631286},
    {"name": "Nick's Place", "category": "American", "phone": "203-245-7227", "lat": 41.2813589, "lng": -72.6315194},
    {"name": "Old Schoolhouse Deli", "category": "American", "phone": "203-245-1610", "lat": 41.277986, "lng": -72.626602},
    {"name": "Petrillo's Pizza Pub & Grill", "category": "Pizza", "phone": "203-245-7111", "lat": 41.28649, "lng": -72.642617},
    {"name": "Pho Madison", "category": "Vietnamese", "phone": "203-245-8686", "lat": 41.2739484, "lng": -72.5550042},
    {"name": "Pizza Works Too", "category": "Pizza", "phone": "475-522-6046", "lat": 41.2739484, "lng": -72.5550042},
    {"name": "Portofino Pizza", "category": "Pizza", "phone": "203-421-5252", "lat": 41.3595132, "lng": -72.6360539},
    {"name": "Red Tomato Pizzeria", "category": "Pizza", "phone": "203-245-6948", "lat": 41.2859778, "lng": -72.6439864},
    {"name": "RJ Cafe & Bistro", "category": "Cafe & Bakery", "phone": "203-245-3959", "lat": 41.279451, "lng": -72.59503},
    {"name": "S&B Cafe", "category": "Cafe & Bakery", "phone": "203-421-2460", "lat": 41.2791623, "lng": -72.5958509},
    {"name": "Starbucks", "category": "Cafe & Bakery", "phone": "203-245-4210", "lat": 41.27985, "lng": -72.59841},
    {"name": "Steamed", "category": "Seafood", "phone": "203-245-1817", "lat": 41.2792341, "lng": -72.5967406},
    {"name": "Taco Pacifico", "category": "Mexican", "phone": "203-245-4911", "seasonal": true, "lat": 41.274112, "lng": -72.5531627},
    {"name": "What's Cookin", "category": "American", "phone": "203-245-5422", "lat": 41.285222, "lng": -72.640307},
    {"name": "Willoughby's Coffee & Tea", "category": "Cafe & Bakery", "phone": "203-245-1600", "lat": 41.2794973, "lng": -72.5954196}
  ],
  "categories": ["All", "American", "Italian", "Seafood", "Mexican", "French", "Japanese", "Chinese", "Vietnamese", "Asian", "BBQ", "Dessert", "Cafe & Bakery", "Pizza", "Fast Food"]
}
