{
  "featured": [
    {
      "name": "Parthenon Diner Restaurant",
      "category": "Greek",
      "address": "869 Boston Post Rd, Old Saybrook",
      "phone": "860-388-3533",
      "website": "https://parthenondiner.com/",
      "image": "branford-logos/DINER-2-2.webp",
      "darkBg": true,
      "lat": 41.2923075,
      "lng": -72.383677
    }
  ],
  "restaurants": [
    {"name": "AJ Noodle Bar", "category": "Asian", "phone": "860-388-8838", "lat": 41.2926449, "lng": -72.3748522},
    {"name": "Alforno Trattoria", "category": "Italian", "phone": "860-395-4600", "lat": 41.2855467, "lng": -72.4158973},
    {"name": "Ashlawn Farm Coffee", "category": "Cafe & Bakery", "phone": "860-339-5663", "lat": 41.3005361, "lng": -72.3765639},
    {"name": "Aspen Restaurant", "category": "American", "phone": "860-395-0003", "lat": 41.2976358, "lng": -72.3765689},
    {"name": "Ben & Jerry's", "category": "Dessert", "phone": "860-339-3900", "lat": 41.2963299, "lng": -72.3772438},
    {"name": "Burger King", "category": "Fast Food", "phone": "860-388-5255", "lat": 41.2970193, "lng": -72.3784575},
    {"name": "Cafe Toscana", "category": "Cafe & Bakery", "phone": "860-388-1270", "lat": 41.2960421, "lng": -72.3771239},
    {"name": "Comfort Cafe", "category": "Cafe & Bakery", "phone": "860-388-3588", "lat": 41.3176956, "lng": -72.3585357},
    {"name": "Courtyard Restaurant", "category": "American", "phone": "860-388-1821", "lat": 41.2966307, "lng": -72.3815453},
    {"name": "Cuckoo's Nest", "category": "Mexican", "phone": "860-399-8189", "lat": 41.285675, "lng": -72.417583},
    {"name": "Curry Queen", "category": "Indian", "phone": "860-510-9803", "lat": 41.295566, "lng": -72.3824677},
    {"name": "Dagmar's Desserts", "category": "Dessert", "phone": "860-661-4661", "lat": 41.2946054, "lng": -72.3771801},
    {"name": "Dairy Queen", "category": "Dessert", "phone": "860-388-5650", "lat": 41.2871371, "lng": -72.4046132},
    {"name": "Duby's Bagels & Bakery", "category": "Cafe & Bakery", "phone": "860-339-3014", "lat": 41.2927322, "lng": -72.3831266},
    {"name": "Dunkin'", "category": "Cafe & Bakery", "phone": "860-388-2024", "lat": 41.2898296, "lng": -72.3873506},
    {"name": "Farm Table", "category": "American", "phone": "860-388-8700", "lat": 41.2860599, "lng": -72.4133622},
    {"name": "Fenwick Ice Cream", "category": "Dessert", "phone": "860-943-3009", "lat": 41.2912309, "lng": -72.3849383},
    {"name": "Fiore Pizzeria", "category": "Pizza", "phone": "860-388-2699", "lat": 41.2925796, "lng": -72.3757858},
    {"name": "Five Guys", "category": "Fast Food", "phone": "860-391-8602", "lat": 41.287815, "lng": -72.4172785},
    {"name": "Fresh Salt", "category": "American", "phone": "860-388-1111", "lat": 41.2835347, "lng": -72.350548},
    {"name": "Himalaya Cafe", "category": "Indian", "phone": "860-388-9696", "lat": 41.2864567, "lng": -72.4077401},
    {"name": "Jack Rabbits", "category": "American", "phone": "860-510-0048", "lat": 41.291317, "lng": -72.3758392},
    {"name": "Johnny Ad's", "category": "Seafood", "phone": "860-388-4032", "lat": 41.2912833, "lng": -72.3837028},
    {"name": "La Marea", "category": "Italian", "phone": "860-388-1600", "lat": 41.3255169, "lng": -72.3772326},
    {"name": "Little Pub Old Saybrook", "category": "American", "phone": "860-339-5955", "lat": 41.2877287, "lng": -72.3999691},
    {"name": "Liv's Oyster Bar", "category": "Seafood", "phone": "860-395-5577", "lat": 41.2931933, "lng": -72.376137},
    {"name": "Liv's Shack", "category": "Seafood", "phone": "860-391-8353", "lat": 41.2820484, "lng": -72.3514697},
    {"name": "Luigi's Restaurant", "category": "Italian", "phone": "860-388-9190", "lat": 41.2874942, "lng": -72.4032134},
    {"name": "McDonald's", "category": "Fast Food", "phone": "860-388-0023", "lat": 41.2879649, "lng": -72.3937745},
    {"name": "Mirsina's Restaurant", "category": "Greek", "phone": "860-388-9706", "lat": 41.2932472, "lng": -72.3761313},
    {"name": "Monkey Farm Cafe", "category": "American", "phone": "860-388-4090", "lat": 41.297947, "lng": -72.376942},
    {"name": "Myrcene Ale Company", "category": "Brewery", "phone": "860-339-3762", "lat": 41.3025335, "lng": -72.3713005},
    {"name": "Mystic Market Kitchen & Eatery", "category": "American", "phone": "860-661-5910", "lat": 41.3027992, "lng": -72.3774261},
    {"name": "Nori", "category": "Japanese", "phone": "860-388-6674", "lat": 41.2907308, "lng": -72.3756703},
    {"name": "Otter Cove Restaurant & Bar", "category": "Seafood", "phone": "860-388-4836", "lat": 41.319291, "lng": -72.3606857},
    {"name": "Paperback Cafe", "category": "Cafe & Bakery", "phone": "860-388-9065", "lat": 41.2926152, "lng": -72.3759246},
    {"name": "Parthenon Diner Restaurant", "category": "Greek", "phone": "860-388-3533", "lat": 41.2923075, "lng": -72.383677},
    {"name": "Pasta Vita", "category": "Italian", "phone": "860-395-1452", "lat": 41.2987958, "lng": -72.3912087},
    {"name": "Peek-a-Brew Play Cafe", "category": "Cafe & Bakery", "phone": "860-388-4303", "lat": 41.2944701, "lng": -72.3760843},
    {"name": "Penny Lane Pub", "category": "American", "phone": "860-388-9646", "lat": 41.29363, "lng": -72.3761491},
    {"name": "Pizza Palace", "category": "Pizza", "phone": "860-388-4090", "lat": 41.2877056, "lng": -72.4028583},
    {"name": "Pizza Works", "category": "Pizza", "phone": "860-388-2218", "lat": 41.3003942, "lng": -72.377147},
    {"name": "Rabbit Hole Tavern", "category": "American", "phone": "860-388-0050", "lat": 41.2912838, "lng": -72.3757759},
    {"name": "Rosemary & Sage", "category": "French", "phone": "860-388-1166", "lat": 41.2880133, "lng": -72.3899885},
    {"name": "Saigon City", "category": "Vietnamese", "phone": "860-388-6888", "lat": 41.287707, "lng": -72.4042261},
    {"name": "Sal's Pizza & Pasta", "category": "Pizza", "phone": "860-399-8331", "lat": 41.2878795, "lng": -72.4184153},
    {"name": "Saybrook Pizza", "category": "Pizza", "phone": "860-339-5028", "lat": 41.2859383, "lng": -72.4118056},
    {"name": "Shakahari", "category": "Vegetarian", "phone": "860-388-2221", "lat": 41.2863198, "lng": -72.4077305},
    {"name": "Sip Espresso & Wine Bar", "category": "Wine Bar", "phone": "860-388-2747", "lat": 41.2941237, "lng": -72.3772201},
    {"name": "Skippers Seafood", "category": "Seafood", "phone": "860-661-0599", "lat": 41.2958702, "lng": -72.3781211},
    {"name": "Starbucks", "category": "Cafe & Bakery", "phone": "860-388-3133", "lat": 41.29646, "lng": -72.37721},
    {"name": "Subway", "category": "Fast Food", "phone": "860-388-9620", "lat": 41.2987492, "lng": -72.3765094},
    {"name": "Sweet Luna's", "category": "Dessert", "phone": "860-391-8194", "lat": 41.2928001, "lng": -72.3769361},
    {"name": "Swell", "category": "Cafe & Bakery", "phone": "959-746-2078", "lat": 41.2927124, "lng": -72.3760951},
    {"name": "Tea Kettle Restaurant", "category": "American", "phone": "860-577-5039", "lat": 41.2873116, "lng": -72.4071127},
    {"name": "The Essex", "category": "American", "phone": "860-767-1776", "lat": 41.289771, "lng": -72.3764947},
    {"name": "TJ's Restaurant", "category": "Pizza", "phone": "860-388-2400", "lat": 41.2940843, "lng": -72.3814163},
    {"name": "Wayback Burgers", "category": "Fast Food", "phone": "860-391-8475", "lat": 41.2865184, "lng": -72.4169128},
    {"name": "Zhang's Restaurant", "category": "Asian", "phone": "860-388-3999", "lat": 41.3005904, "lng": -72.3763761}
  ],
  "categories": ["All", "American", "Italian", "Greek", "Mexican", "Seafood", "French", "Vietnamese", "Japanese", "Indian", "Asian", "Vegetarian", "Wine Bar", "Brewery", "Cafe & Bakery", "Pizza", "Dessert", "Fast Food"]
}
