{
  "featured": [],
  "restaurants": [
    {"name": "Bacari Social", "category": "Seafood", "phone": "860-661-5736", "lat": 41.2715721, "lng": -72.4701843},
    {"name": "Bill's Seafood", "category": "Seafood", "phone": "860-399-7224", "lat": 41.2780851, "lng": -72.4680754},
    {"name": "Bistro Mediterranean & Tapas Bar", "category": "Mediterranean", "phone": "860-577-5054", "lat": 41.2790008, "lng": -72.4634246},
    {"name": "Charter Oak Tavern", "category": "American", "phone": "860-661-5118", "lat": 41.2862433, "lng": -72.4481638},
    {"name": "Coastline Brewing", "category": "Brewery", "phone": "860-661-4700", "lat": 41.2754858, "lng": -72.483923},
    {"name": "Cristy's", "category": "American", "phone": "860-399-4211", "lat": 41.2846732, "lng": -72.446705},
    {"name": "Dairy Queen", "category": "Fast Food", "phone": "860-669-8768", "lat": 41.2744043, "lng": -72.4835064},
    {"name": "Dunkin'", "category": "Cafe & Bakery", "phone": "860-399-5520", "lat": 41.2903182, "lng": -72.4448469},
    {"name": "Edd's Place", "category": "American", "phone": "860-399-9559", "lat": 41.2773304, "lng": -72.4707926},
    {"name": "El Rincon Del Sabor", "category": "Latin", "phone": "860-664-9066", "lat": 41.274258, "lng": -72.4842234},
    {"name": "Hartford Giant Grinder", "category": "American", "phone": "860-661-4357", "lat": 41.2864455, "lng": -72.4488751},
    {"name": "Haywire Burger Bar", "category": "American", "phone": "860-391-8479", "lat": 41.2791904, "lng": -72.4621364},
    {"name": "Highliner III", "category": "Bar & Grill", "phone": "860-399-5042", "lat": 41.2892189, "lng": -72.4474258},
    {"name": "Hog Wild Smokin' Cue", "category": "BBQ", "phone": "860-662-3081", "lat": 41.2749195, "lng": -72.4616542},
    {"name": "Lenny & Joe's Fish Tale", "category": "Seafood", "phone": "860-669-0767", "lat": 41.2747354, "lng": -72.4844777},
    {"name": "Leon's Pizza", "category": "Pizza", "phone": "860-669-9691", "lat": 41.2738607, "lng": -72.485709},
    {"name": "Sammy's Restaurant", "category": "Italian", "phone": "860-339-3680", "lat": 41.2804954, "lng": -72.4275252},
    {"name": "Scoops & Slices", "category": "Deli", "phone": "959-746-2001", "lat": 41.2828522, "lng": -72.4548399},
    {"name": "Shayna B's By The Sea", "category": "Vegan", "phone": "860-661-5289", "lat": 41.2780641, "lng": -72.4652714},
    {"name": "Subway", "category": "Fast Food", "phone": "860-399-2782", "lat": 41.285736, "lng": -72.45081},
    {"name": "Taqueria Cinco", "category": "Mexican", "phone": "860-399-5050", "lat": 41.2857691, "lng": -72.4508435},
    {"name": "The Deck", "category": "Bar & Grill", "phone": "860-339-5277", "lat": 41.2749002, "lng": -72.4742326},
    {"name": "Turtle Cafe", "category": "American", "phone": "860-399-7768", "lat": 41.285806, "lng": -72.447914},
    {"name": "Water's Edge Sunset Grill", "category": "American", "phone": "860-399-5901", "lat": 41.2794191, "lng": -72.437276},
    {"name": "Westbrook Pizza", "category": "Pizza", "phone": "860-399-5141", "lat": 41.2809976, "lng": -72.4375112}
  ],
  "categories": ["All", "American", "Bakery", "Bar & Grill", "BBQ", "Brewery", "Cafe & Bakery", "Deli", "Fast Food", "Italian", "Latin", "Mediterranean", "Mexican", "Pizza", "Seafood", "Vegan"]
}
