permit,name,verified_decision,verified_category,lat,lng,website,notes
1992,A1 Pasa LLC,KEEP,Deli / Sandwich,41.438534,-72.015582,,Operates as Lu'Lu' Deli inside Bestway Citgo plaza; LLC permit holder
1105,Lucille's,KEEP,Cafe & Bakery,41.442157,-72.01617,https://lucillescafe.square.site,"Lucille's Cafe — coffee, breakfast & lunch"
407,The Bakers Dozen of Gales Ferry,KEEP,Cafe & Bakery,41.410795,-72.073438,https://www.bakersdozenct.com,Coffee shop & bakery inside Gales Ferry Bestway
475,Valentino's,KEEP,Italian,41.440695,-72.016923,https://www.valentinosrestaurantct.com,Italian restaurant & pizzeria
1164,A Thyme To Cook,REMOVE,caterer,41.517844,-71.960541,https://www.athymetocook.com,Full-service catering company; no public restaurant
651,Bellissimo Grande,REMOVE,hotel / lodging,41.449049,-71.899975,https://www.bellissimogrande.com,164-room hotel; has onsite restaurant + Starbucks
687,Buon Appetito,KEEP,Italian,41.447882,-71.895745,https://buonappetitoristorante.com,Italian ristorante & pizzeria
95,Gourmet Galley,REMOVE,caterer,41.428308,-71.862277,https://ggathome.com,Gourmet Galley Catering / GG At Home specialty-food shop
2109,Nathan's & Johnny Pastrami's,KEEP,Deli / Sandwich,41.442629,-71.801615,,Pastrami & hot dog counter with seating inside a gas station
1978,Pollywogs,REMOVE,childcare / camp,41.449837,-71.901017,https://www.pollywogschilddevelopmentcenter.com,Child development center / daycare
1867,Raina's Red Onion,KEEP,Pizza,41.423969,-71.859881,https://www.redonionpizzarestaurant.com,Pizza & Italian restaurant
2144,The Bakers Dozen of North Stonington LLC,KEEP,Cafe & Bakery,41.420664,-71.858645,https://www.bakersdozenct.com,Coffee shop & bakery inside Bestway
670,Black Sheep,KEEP,Bar,41.323595,-72.193223,http://theblacksheepniantic.com,Irish bar & restaurant
1849,Constantine's On The Bay,KEEP,Seafood,41.323161,-72.193053,https://www.constantinesonthebay.com,Steak & seafood restaurant
755,Crescent Beach,KEEP,Seafood,41.322194,-72.204476,https://flandersfish.com/the-stand/,Seasonal beachside seafood stand run by Flanders Fish
1161,Five Churches By The Bay,KEEP,Bar,41.323936,-72.19148,https://btbniantic.com,Brewery taproom + brick-oven pizza
799,King's Garden,KEEP,Chinese,41.364789,-72.210129,,Chinese restaurant
808,La Belle Aurore,KEEP,American,41.326461,-72.193266,https://www.labelleaurorect.com,Farm-to-table New American bistro
1101,Rossa Negra,KEEP,Mexican / Latin,41.353635,-72.210955,https://rossanegra.com,International fusion cuisine with Latin American roots
302,Skippers,KEEP,Seafood,41.324353,-72.188818,https://skippersseafood.com,Skipper's Seafood Restaurant
308,Smokey O'Grady's,KEEP,BBQ,41.363619,-72.209562,https://www.smokeyogradysct.com,BBQ / wings sports bar
425,The Inn at Harbor Hill Marina,REMOVE,hotel / lodging,41.325668,-72.186966,https://innharborhill.com,Waterfront B&B inn; breakfast for guests only
439,The Shack,KEEP,Diner,41.364789,-72.210129,https://www.shackrestaurants.com,Family diner — breakfast/lunch/dinner
1600,Hallmark Drive-In Delights LLC,KEEP,American,41.293359,-72.314902,https://www.hallmarkdrivein.com,"Drive-in: burgers, hot dogs, seafood & ice cream"
2090,Hideaway,KEEP,American,41.324797,-72.333662,https://www.hideawayrestaurantwoodfiredpizza.com,Hideaway Restaurant & Woodfire Pizza — restaurant & pub
162,Hong Kong II,KEEP,Chinese,41.324797,-72.333662,,Chinese restaurant
802,Kokomo's,KEEP,Seafood,41.284482,-72.277536,https://www.kokomosrestaurant.com,Beachfront American & seafood restaurant
1081,Long River Local,KEEP,Cafe & Bakery,41.322256,-72.338866,https://longriverlocal.com,Farm market & café
1236,Marnaroons,REMOVE,retail (packaged bakery),41.324797,-72.333662,https://marnaroons.com,"Coconut-macaroon maker; online orders + retail pickup, not a cafe"
363,Old Lyme Inn,KEEP,American,41.324534,-72.326373,https://www.oldlymeinn.com,Inn with destination restaurant & jazz club
961,The Hangry Goose,KEEP,American,41.324303,-72.330126,https://www.hangrygoose.com,Waterfront breakfast & lunch restaurant
431,The Pavilion,KEEP,Bar,41.284584,-72.277169,https://www.pavilionbeachbar.com,Beach bar with live music & snack bar
2082,The Stumble Inne,KEEP,Bar,41.323006,-72.335504,https://thestumbleinne.com,"Bar & restaurant, pool & live music"
1199,A1 Quick and Easy LLC,REMOVE,gas station,41.346857,-72.139981,,Retail gasoline dealer
1194,Fat Tuna,KEEP,Seafood,41.325508,-72.173843,https://www.fattunact.com,Waterfront seafood restaurant at Mago Point
53,Filomena's,KEEP,Italian,41.347172,-72.144274,,Italian restaurant & bar
1970,Fish,KEEP,Seafood,41.350255,-72.153384,https://nianticfish.com,Fisherman-owned seafood market & casual dining (Fish Niantic)
171,Illiano's of Waterford,KEEP,Pizza,41.367995,-72.125743,https://illianoswaterford.com,Illiano's Real Italian Pizzeria
2063,Ivy's Simply Homemade,REMOVE,caterer,41.350255,-72.153384,https://www.ivyssimplyhomemade.com,Event catering & prepared-meals storefront
180,J.R.'s Shack,KEEP,Diner,41.34299,-72.126864,https://www.shackrestaurants.com,The Shack Waterford — family diner
838,Lucky Inn,KEEP,Chinese,41.341718,-72.114848,,Lucky Inn Chinese Restaurant
905,Nana's Byrek LLC,KEEP,Pizza,41.349936,-72.154015,https://nanasbyrek.com,Nana's Byrek & Pizza — byrek & pizza restaurant
416,The Dock,KEEP,Seafood,41.325455,-72.176864,https://dockct.com,Waterfront seafood restaurant & fish market
511,When Pigs Fly,KEEP,Cafe & Bakery,41.340224,-72.142002,https://whenpigsflycafe.com,Breakfast & lunch cafe
611,Adams Express LLC,REMOVE,grocery / market,41.36743,-72.102052,,Adam's Market Citgo — convenience store & gas station
935,Cultura Antojitos Puertorriquenos,KEEP,Mexican / Latin,41.357456,-72.101991,,Puerto Rican takeout restaurant
1811,Diamond,KEEP,Pizza,41.353397,-72.094409,https://diamondnewlondon.com,Sourdough brick-oven pizzeria with cocktail lounge & arcade
1227,El Punto Exacto LLC,KEEP,Mexican / Latin,41.344899,-72.105044,https://elpuntoexactollcct.com,Dominican & Puerto Rican restaurant
122,Half Keg LLC,KEEP,Bar,41.367252,-72.124409,,"Half-Keg Tavern — bar with pub food, operating since 1946"
1127,Java Joe's Grab & Go,KEEP,Cafe & Bakery,41.354581,-72.092995,https://java-joesllc.square.site,Coffee shop at Union Station (Amtrak)
1124,Lighthouse Inn,KEEP,American,41.317023,-72.093681,https://www.lighthouseinn.us,1902 Tavern restaurant at the historic Lighthouse Inn
2103,Mi Ranchito Express LLC,KEEP,Mexican / Latin,41.342142,-72.105206,https://www.miranchitoexpress.com,Mexican restaurant
878,Mr. G's,KEEP,Pizza,41.367319,-72.102572,https://www.mrgsrestaurantmenu.com,"Mr G's — Greek-style pan pizza, grinders & full menu since 1966"
380,Panda Buffet,KEEP,Chinese,41.371975,-72.117419,https://pandabuffetct.com,Chinese buffet
397,Pezzello Brothers,REMOVE,grocery / market,41.353497,-72.110273,http://www.pezzellobros.com,Pezzello Brothers Fruit & Produce — wholesale produce / public market
215,Port and Starboard,REMOVE,banquet / event venue,41.309171,-72.096372,,"Port N Starboard Ocean Front Banquet & Conference Center, Ocean Beach Park"
238,Recovery Room,KEEP,Pizza,41.334041,-72.10466,https://www.recoveryroomnewlondon.com,Casual pizza & Italian restaurant
1051,Rico Chow,KEEP,Asian Fusion,41.365922,-72.101905,https://rico-chow.square.site,Asian–Puerto Rican fusion restaurant
1187,Sellfish,KEEP,Seafood,41.3341,-72.097447,https://www.sellfishusa.com,Waterfront seafood restaurant
2112,Su & Sa,KEEP,Japanese,41.353465,-72.094354,https://suandsanl.com,Su & Sa Sushi and Salad — sushi restaurant
441,The Social,KEEP,Bar,41.352044,-72.096572,https://socialnewlondon.com,The Social Bar + Kitchen — craft beer/cocktails & New American
454,Tony D's,KEEP,Italian,41.356053,-72.099757,https://www.tonydsnl.com,Family-run Italian restaurant since 1999
676,Bogue's Alley,KEEP,Deli / Sandwich,41.377669,-71.832181,https://boguesalley.com,Breakfast/lunch sandwich bistro & market
681,Breakwater,KEEP,Seafood,41.331852,-71.907867,https://breakwaterstonington.com,Waterfront seafood & American restaurant
693,C.C. O'Brien's,KEEP,Bar,41.376979,-71.833177,https://ccobriens.com,Irish sports cafe / pub
1922,Dock 9,KEEP,Bar,41.338137,-71.898086,https://dock9-ct.com,Craft cocktail bar & restaurant in the Velvet Mill
163,Hoof's,KEEP,Italian,41.377658,-71.833018,https://www.hoofsrestaurant.com,Italian restaurant
1060,Inn at Stonington,REMOVE,hotel / lodging,41.331744,-71.906641,https://innatstonington.com,18-room waterfront inn; continental breakfast for guests only
845,Macondo,KEEP,Cafe & Bakery,41.348961,-71.911908,https://welcometomacondo.com,Coffee shop & juice bar
870,Milagro,KEEP,Mexican / Latin,41.334873,-71.907012,https://milagrocafe142.com,Milagro Café — modern Mexican restaurant
1818,Owl and Dove,KEEP,American,41.377381,-71.833555,https://www.owlanddovect.com,"Family-owned New American restaurant, breakfast & dinner"
1570,REDS,KEEP,American,41.373091,-71.851329,https://www.redsbreakfasts.com,REDS Breakfast & Lunch restaurant
1136,Rum Tropic LLC,REMOVE,distillery,41.338137,-71.898086,https://rumtropic.us,"Rum distillery tasting room — cocktails/flights, no food (Velvet Mill)"
1991,The Flying Hoof,KEEP,American,41.375589,-71.847523,https://theflyinghoof.com,"Pizza, fried chicken & smash burgers — takeout restaurant"
2170,The Mystic Cheese Company,REMOVE,retail (specialty food),41.338137,-71.898086,https://www.mysticcheese.co,Cheese shop & cheesemaker retail in the Velvet Mill
2108,Masa & Meryl,KEEP,Cafe & Bakery,41.338137,-71.898086,https://merylmasa.com,Meryl + Masa — sourdough bakery & Latin sandwich eatery in the Velvet Mill
607,Abbott's Lobsters,KEEP,Seafood,41.321142,-71.98839,https://www.abbottslobster.com,"Abbott's Lobster in the Rough — iconic seasonal lobster shack, Noank"
1201,Astin J's,KEEP,American,41.348465,-72.053059,,"Family restaurant — tacos, smash burgers, wings, soul food"
2073,Bamboo House,KEEP,Chinese,41.337716,-72.076038,https://www.bamboohousect.com,Chinese restaurant
1856,Captain's,KEEP,Bar,41.386626,-72.07821,,Captain's Pub — neighborhood bar
1095,Fords Black & Blue,KEEP,American,41.323125,-71.994435,https://fordsblackandblue.com,"Casual steak & seafood restaurant, Noank"
1210,Game Time,KEEP,Bar,41.377316,-72.075657,https://gametimegroton.com,"Game Time Sports Bar — sports bar, burgers & wings"
115,Groton Townhouse,KEEP,Diner,41.371213,-72.072586,http://grotontownhouserestaurant.com,Family diner — breakfast/lunch/dinner
1981,Haring's Marine LLC,REMOVE,marina,41.32491,-71.987506,,Marina / fuel-dock entity; the public restaurant is the separate Haring's Noank permit
1946,Haring's Noank,KEEP,Seafood,41.324471,-71.985615,https://www.haringsnoank.com,"Waterfront New England seafood shack, Noank"
1881,Minn Cha LLC,KEEP,Bubble Tea,41.346554,-72.027739,,"Bubble tea shop — milk teas, croffles, shaved ice"
883,Mynx After Dark,REMOVE,adult entertainment,41.37282,-72.073419,,Mynx Cabaret — adult entertainment club
1956,Point Spa - Anchor Dockside,KEEP,American,41.311978,-72.010026,https://anchordockside.com,"Operates as Anchor Dockside — dockside breakfast/lunch/dinner, flatbreads & ice cream"
1046,Pokemoto,KEEP,Poke / Hawaiian,41.36913,-72.071227,https://www.pokemoto.com,Hawaiian poke restaurant
221,Puffins,KEEP,American,41.358119,-72.084326,https://www.seabirdenterprises.org/puffins,Waterfront breakfast & lunch restaurant (run by the Seabird Enterprises nonprofit)
245,Rice Box,KEEP,Chinese,41.347038,-72.048663,,Dan's Rice Box — Asian / Chinese counter-service restaurant
0,Richoni's,KEEP,Bar,41.3462,-72.070904,,"Richoni's Lounge — neighborhood bar serving pizza, prime rib & grinders"
2132,Small Bites,REMOVE,nutrition club,41.349597,-72.08004,,Small Bites Nutrition — shake / tea nutrition club
1115,The Barn,KEEP,Bar,41.346156,-72.036686,https://www.barnct.com,"Bar & restaurant — craft beer, pizza, wings, live music (Yelp lists as closed; verify status)"
1144,The Fisherman at Long Point,KEEP,Seafood,41.321213,-72.000765,https://thefishermanrestaurant.com,"Waterfront seafood restaurant, Groton Long Point"
426,The Inn at Trails Corner,REMOVE,rehab / care facility,41.340955,-72.056156,,Sober-living / rehabilitation facility (Stonington Institute)
435,The Rolling Tomato,KEEP,Pizza,41.353749,-72.060351,https://www.therollingtomato.com,Mobile wood-fired pizza — food truck & catering (commissary address)
2009,Triple B,KEEP,Bar,41.426755,-72.0824,https://www.triplebct.com,Triple B Best Burgers & Brews — sports bar & burger restaurant
2033,Wood N Tap,KEEP,American,41.362196,-72.066871,https://woodntap.com,Wood-N-Tap Bar & Grill — American bar & grill
975,Yoko Loko LLC,KEEP,Mexican / Latin,41.420681,-72.077339,,Yoko Loko — Filipino & Mexican fusion eatery
622,ALMAAR LLC,REMOVE,gas station,41.379206,-71.956166,,Operator of the Mystic Texaco/Mobil station & convenience store (a Subway also operates at this address)
620,Alice in the Village,REMOVE,retail (tea & gift shop),41.373613,-71.956827,,Wonderland-themed tea & gift shop; afternoon tea by reservation only
1099,Anchor Mystic,KEEP,Cafe & Bakery,41.359358,-71.963979,https://anchormystic.com,"Cafe, bakery & creamery at the Mystic Seaport entrance"
1133,Andiamo,KEEP,Italian,41.372583,-71.960717,https://www.andiamo-mystic.com,Italian restaurant
1589,Arisu Anime,REMOVE,retail (anime store),41.372583,-71.958263,https://arisuanime.com,Anime store with Japanese snack market & retro arcade
2029,Barbary Coast,KEEP,Mediterranean,41.353731,-71.971733,https://www.barbarycoastct.com,"Modern Mediterranean restaurant, downtown Mystic"
679,Bravo Bravo,KEEP,Italian,41.354563,-71.967014,https://www.bravobravoct.com,Contemporary Italian restaurant
704,Captain Daniel Packer Inne,KEEP,American,41.351009,-71.97215,https://danielpacker.com,Historic 1756 colonial restaurant & tavern on the Mystic River
1609,Captain's Mansion LLC,REMOVE,hotel / lodging,41.354613,-71.975156,https://www.captainsmansion.com,8-room B&B; continental breakfast for guests only (sister to Steamboat Inn)
712,Chapter One Fine Food & Drink,KEEP,American,41.354881,-71.970362,https://chapter-one.com,New American restaurant & bar
2191,Cucina Al Pantheon,KEEP,Italian,41.354759,-71.97143,https://pantheonmystic.com,Fine Italian dining in a historic granite bank building
40,Engine Room,KEEP,American,41.355668,-71.966275,http://www.engineroomct.com,"American comfort food, burgers & craft beer"
76,Friar Tuck's,KEEP,Bar,41.353488,-71.972262,https://www.friartucksmystic.com,Friar Tuck's Tavern — Irish pub & sports bar
1131,Greenman's Landing,KEEP,American,41.361831,-71.964383,,Casual New England fare restaurant at Mystic Seaport Museum (formerly The Galley)
2007,Han Tang Palace,KEEP,Chinese,41.348903,-71.957909,https://hantangpalace.com,Chinese & Japanese restaurant with omakase
133,Harp and Hound,KEEP,Bar,41.355051,-71.970756,http://harpandhound.com,Harp and Hound — Irish pub
2179,Jealous Monk,KEEP,Bar,41.372583,-71.958263,https://www.jealous-monk.com,European-style beer garden & social hall in Olde Mistick Village
2114,Jeremiah's Mystic LLC,KEEP,American,41.353772,-71.971403,https://jeremiahsmystic.com,"Jeremiah's Restaurant & Tavern — steaks, seafood & comfort food"
800,Kitch,REMOVE,retail (kitchen / specialty food),41.372583,-71.958263,https://kitchmystic.com,Kitchen-supply & specialty-food store with cooking classes
1579,La Plage Mystic,KEEP,Seafood,41.363839,-71.963971,https://www.laplagemystic.com,Restaurant & oyster bar at the Delamar Mystic
1212,Milestone,KEEP,American,41.353488,-71.972262,https://www.milestonect.com,Neighborhood restaurant & bar — comfort food
1796,Mix,KEEP,American,41.353923,-71.971324,https://www.mixmystic.com,Mix Rooftop Restaurant & Bar atop Sift Bake Shop
2037,Mystic Fish Camp,KEEP,Seafood,41.354553,-71.968195,https://www.mysticfishcamp.com,Fast-casual chef-driven seafood restaurant
1033,Mystic Royal,KEEP,Indian,41.349468,-71.957918,https://www.mysticroyal.com,South Asian / Indian restaurant
1170,Mystic Slices LLC,KEEP,Pizza,41.375866,-71.958573,https://ginospizzamystic.com,Operates as Gino's Pizza & Sports Bar
202,Pink Basil,KEEP,Asian Fusion,41.373613,-71.956827,https://pinkbasilct.com,"Asian fusion — Thai & sushi, Olde Mistick Village"
239,Red 36,KEEP,Seafood,41.352829,-71.968489,https://www.red36ct.com,Waterfront American & seafood restaurant with raw bar
948,Rio Salado,KEEP,Mexican / Latin,41.372571,-71.958612,,Modern Mexican restaurant
255,Rocks 21,KEEP,American,41.350671,-71.960636,https://rocks21.com,Restaurant & bar at the Inn at Mystic — seafood & wood-fired pizza
315,Somewhere In Time,KEEP,American,41.393294,-71.961892,https://somewhereintimecafe.com,Somewhere In Time Cafe — breakfast & lunch cafe
537,Steak Loft,KEEP,Steakhouse,41.373613,-71.956827,https://steakloftct.com,"Steakhouse & seafood with salad bar, operating since 1973"
539,Steamboat Inn,REMOVE,hotel / lodging,41.3537,-71.9685,https://www.steamboatinnmystic.com,11-room waterfront inn; breakfast for guests only
587,Taber Inn,REMOVE,hotel / lodging,41.347778,-71.956385,https://taberinne.com,Family inn / hotel; breakfast for guests only
2181,Taza2Go,KEEP,Middle Eastern,41.379206,-71.956166,https://www.taza2go.com,Middle Eastern (Egyptian) food counter inside a Mobil station
408,The Boardwalk,REMOVE,retail (gift shop),41.372583,-71.958263,,Coastal gift shop with a boardwalk-snack counter
1055,The Cloak and Wand,REMOVE,retail (gift shop),41.372583,-71.958263,,Fantasy / wizard gift shop with a novelty potion bar
428,The Mariner,KEEP,Seafood,41.354589,-71.969875,https://themarinermystic.com,Coastal New England seafood restaurant
1927,The Misfit Club,KEEP,Bar,41.353488,-71.972262,,Craft bar & inclusive social club
1145,The Port of Call,KEEP,Bar,41.352443,-71.971216,https://theportofcallct.com,Craft cocktail lounge with chef-driven small plates
974,The Shipwright's Daughter,KEEP,American,41.354426,-71.967381,https://www.shipwrightsdaughter.com,Award-winning tide-to-table restaurant at the Whaler's Inn
946,Via Emilia,KEEP,Italian,41.354886,-71.969791,,Italian restaurant — handmade pasta
518,Wokery,KEEP,Chinese,41.357294,-71.96305,https://www.wokeryinmystic.com,Wokery in Mystic — Chinese takeout restaurant
1853,374 Kitchen & Cocktails,,,41.322384,-72.197247,https://www.374kitchenandcocktails.com,
669,Black Point Pizza,,,41.319034,-72.204781,https://www.blackpointpizza.com,
1934,Blue Heron Creamery - East Lyme LLC,,,41.36645,-72.206822,https://www.blueheroncreamery.com,
962,Boardwalk Pizzeria,,,41.323922,-72.191052,https://orderboardwalkpizzeria.com,
2057,Burger King #2565,,,41.345215,-72.208949,https://www.bk.com,
1821,Cafe Sol,,,41.321952,-72.202455,https://cafesolniantic.com,
709,Castello Pizza,,,41.323089,-72.202268,https://www.castelloofniantic.com,
1626,Charlie's Place Restaurant,,,41.321655,-72.206634,https://charliesplacerestaurant.com,
2159,Coastal Crust LLC,,,41.35539,-72.210702,https://thecoastalcrust.com,
1208,Craft Bakeshop LLC DBA Sift Bakeshop,,,41.324122,-72.189366,https://www.siftbakeshopmystic.com,
2040,Dad's Restaurant,,,41.324761,-72.187284,https://www.dadsrestaurant.com,
769,Dairy Queen of Niantic,,,41.326219,-72.193141,https://www.dairyqueen.com,
10,Dunkin Donuts #306701,,,41.353321,-72.209965,https://www.dunkindonuts.com,
21,Dunkin Donuts #353055,,,41.318405,-72.226993,https://www.dunkindonuts.com,
25,East Coast Taco,,,41.3218,-72.209385,https://www.eastcoasttaco.com,
28,East Lyme Pizza,,,41.366197,-72.214082,,
990,Family Pizza Restaurant,,,41.323661,-72.192448,https://familypizzaniantic.com,
62,"Flander's Donut & Bake Shop, Inc.",,,41.363047,-72.209216,https://flandersbakery.com,
64,Flanders Fish Market & Restaurant,,,41.367676,-72.210673,https://flandersfish.com,
87,Giuliano's Bakery,,,41.323089,-72.194103,https://nianticbakery.com,
100,Great Wall Chinese Restaurant,,,41.349533,-72.210561,,
136,Haylon's Market/Deke's Bagels,,,41.318672,-72.225393,https://www.dekesbagels.com,
1103,IL Pomodoro Restaurant & Pizzeria,,,41.366448,-72.21062,https://ilpomodoroitalianrestaurant.com,
2001,KAITO SUSHI LLC,,,41.367428,-72.208798,,
1041,La Llorona Progressive Mexican Cuisine,,,41.324818,-72.193937,,
2142,Lyme Tavern,,,41.318155,-72.238888,https://lymetavernsportsbar.com,
909,New Diamond Chinese Restaurant,,,41.326005,-72.193029,https://www.diamondniantic.com,
334,Niantic Public House and Brewery,,,41.323545,-72.192461,https://www.nianticpublichouse.com,
1894,Osaka East Lyme Asian Restaurant,,,41.364981,-72.210198,https://www.osakaeastlymect.com,
392,Peachwave & Grill,,,41.349533,-72.210561,https://peachwaveyogurt.com,
1162,Plum Tomato Pizzeria,,,41.366918,-72.210244,https://theplumtomato.com,
2064,Rustic Cafe,,,41.344282,-72.261319,https://www.rustic.food,
280,Scott's Meats & Deli,,,41.360588,-72.209817,,
305,Slipper Shell Galley @ Niantic Bay Yacht Club,,,41.3157,-72.1949,https://www.nbyc.org/galley,
320,Spada's Grinders LLC dba Hartford Giant Grinder,,,41.325124,-72.193503,,
534,Starbucks Coffee #9292,,,41.345215,-72.208949,https://www.starbucks.com,
559,Subway #13319,,,41.323503,-72.194027,https://www.subway.com,
572,Subway #63665,,,41.367928,-72.209924,https://www.subway.com,
579,Sunset Isle LLC DBA McDonald's of East Lyme #32967,,,41.367614,-72.20962,https://www.mcdonalds.com,
438,The Sand Castle Grill,,,41.317393,-72.240979,,
448,Three Belles Marina Deli,,,41.33311,-72.195704,https://threebellesmarina.com,
455,Tony D's Craft Creamery,,,41.321926,-72.200024,https://www.tonydscraftcreamery.com,
954,Village Cafe LLC,,,41.35163,-72.210862,,
487,Village Pizza and Grille,,,41.321437,-72.209836,https://villagepizzaniantic.com,
934,Vincitori Apizza,,,41.323046,-72.194353,https://www.vincitoriapizza.com,
1141,Zavala Mexican Bistro,,,41.36643,-72.212762,https://zavalamexicanbistro.com,
612,Advantage Personal Training,,,,,,
625,American Legion Post #128,,,41.326109,-72.189893,,
2165,AMG Retail I LLC #548,,,41.345215,-72.208949,,
1574,"AMG Retails I, LLC #169",,,41.322665,-72.195654,,
1607,Black Point Market,,,,,,
1203,Bride Brook SNF Operations LLC,,,,,,
937,Club Demonstration Services,,,41.359948,-72.213553,,
952,Costco Wholesale #1372,,,41.359948,-72.213553,,
756,Crescent Point at Niantic,,,41.322955,-72.199209,,
1875,CVS Pharmacy #1152,,,41.326015,-72.19418,,
1878,CVS Pharmacy #4473,,,41.367428,-72.208798,,
2150,Dollar General Store #17503,,,41.318003,-72.225811,,
997,Dollar General Store #21845,,,41.365655,-72.213353,,
26,East Lyme High School,,,41.369129,-72.212625,,
27,East Lyme Middle School,,,41.35102,-72.215882,,
1806,"East Lyme Noble, LLC",,,41.36645,-72.206822,,
29,East Lyme Senior Center,,,,,,
63,Flanders Elementary School,,,41.367518,-72.21563,,
65,Flanders Shell Station,,,41.366585,-72.210332,,
1229,GG at Home,,,41.324122,-72.189366,,
116,Gumdrops & Lollipops,,,41.322606,-72.196105,,
140,Henny Penny #7421,,,41.318405,-72.226993,,
923,Hissho Sushi @ Stop&Shop #665,,,41.345215,-72.208949,,
1945,Koastal Krunch,,,41.318207,-72.224496,,
828,Lillie B. Haynes School,,,41.348254,-72.213707,,
2115,Niantic Bay Playhouse,,,41.323464,-72.194157,,
330,Niantic Center School,,,41.323006,-72.203811,,
335,Niantic Sportsman's Club,,,41.34088,-72.24965,,
1123,Pinspiration,,,41.367428,-72.208798,,
217,Post Road Market,,,41.368421,-72.220844,,
303,Sleep Inn,,,41.359488,-72.208472,,
526,St. Agnes Church,,,41.320988,-72.199401,,
1158,St. Matthias Parish Center,,,41.406497,-72.223575,,
553,Stop and Shop #665,,,41.345215,-72.208949,,
1578,T&B Provisions,,,41.324862,-72.192668,,
443,The Spice Club,,,41.324134,-72.193099,,
461,Tri Town Foods,,,41.367428,-72.208798,,
2156,Walgreens #17893,,,41.365656,-72.210201,,
2047,Adeola Caesars LLP,,,41.344119,-72.071371,,
633,Applebee's #29 Groton,,,41.357545,-72.061475,https://www.applebees.com,
652,Bennedito's Grinders,,,41.345749,-72.070843,http://benneditosgrinders.com,
686,Buford's Family Restaurant,,,41.347266,-72.074173,,
2055,Burger King #456,,,41.352657,-72.059608,https://www.bk.com,
1974,Caribbean Delices Restaurant,,,41.349399,-72.051116,,
719,Chester's Barbecue,,,41.345652,-72.050603,https://chestersbbq.com,
977,China Express Groton,,,41.345642,-72.078768,https://www.chinaexpressct.com,
2002,China King,,,41.390297,-71.986875,https://www.chinakinggroton.com,
725,Chinese First Wok,,,41.348397,-72.053835,https://www.chinesefirstwokct.com,
2116,Chinese Kitchen,,,41.367438,-72.071302,https://www.grotonchinese.com,
964,Chipotle Mexican Grill,,,41.369944,-72.070493,https://www.chipotle.com,
729,Christopher's Cafe,,,41.346683,-72.049539,https://partygroton.com,
750,Costello's Clam Company,,,41.319157,-71.988859,,
771,D'Angelo's Sandwich Shop #5010,,,41.351417,-72.058451,https://www.dangelos.com,
1987,Domino's Pizza,,,41.3825,-72.025896,https://www.dominos.com,
794,Domino's Pizza #4050,,,41.370931,-72.071278,https://www.dominos.com,
2,Dunkin Donuts,,,41.390206,-71.987589,https://www.dunkindonuts.com,
7,Dunkin Donuts #300292 CDI LOC 100,,,41.372362,-72.071853,https://www.dunkindonuts.com,
11,Dunkin Donuts #310195 CDI LOC 200,,,41.347165,-72.052973,https://www.dunkindonuts.com,
12,"Dunkin Donuts #331844, JJMA LOC 100",,,41.428629,-72.081976,https://www.dunkindonuts.com,
15,Dunkin Donuts #340509 JJMA 2 LOC 100,,,41.347266,-72.076274,https://www.dunkindonuts.com,
18,Dunkin Donuts #342883 JJMA 2 LOC 300,,,41.347016,-72.045819,https://www.dunkindonuts.com,
943,"Dunkin Donuts #345185, JJMA LOC 400",,,41.383336,-72.02666,https://www.dunkindonuts.com,
39,Empire Wok,,,41.34801,-72.050932,https://www.empirewokchinese.com,
2059,Fee Fi Fo Crumb LLC,,,41.428733,-72.082954,,
55,Fireside Brickoven,,,41.428733,-72.082954,,
59,Five Guys Burgers & Fries,,,41.367773,-72.064066,https://www.fiveguys.com,
1862,Friendly Thai Restaurant,,,41.343035,-72.037667,,
201,Gansett Wraps,,,41.368497,-72.069693,https://www.gansettwraps.com,
85,Gatehouse Tavern,,,41.323319,-72.07036,,
1573,Gold Dumpling,,,41.365878,-72.068532,https://www.golddumpling.com,
91,Gold Star Pizza,,,41.373083,-72.051924,https://www.goldstarpizza.com,
92,Golden Chopsticks,,,41.429101,-72.080769,https://goldenchopstickswvtogo.com,
104,Grille 92 at Fairview,,,41.374775,-72.082819,https://www.grille92.com,
107,Groton Dairy Queen,,,41.346103,-72.034189,https://www.dairyqueen.com,
118,Gus's Pizza Restaurant,,,41.382419,-72.026863,https://gusspizzact.com,
124,Hamilton Sunset Corp. d/b/a McDonald's of Groton #1223,,,41.352073,-72.059204,https://www.mcdonalds.com,
971,Jersey Mikes Subs,,,41.369944,-72.070493,https://www.jerseymikes.com,
193,Ju Sushi,,,41.346307,-72.046442,https://www.ju-sushi.com,
195,K&S Custom Catering LLC dba Norm's Diner,,,41.361715,-72.079142,,
798,Kentucky Fried Chicken,,,41.368884,-72.0698,https://www.kfc.com,
803,Koto Japanese Steakhouse,,,41.35324,-72.060119,https://kotoct.com,
806,Kyoto Sushi LLC,,,41.348533,-72.053221,https://www.kyotosushigroton.com,
953,McDonalds,,,41.42744,-72.081875,https://www.mcdonalds.com,
869,Midway Pizza,,,41.345712,-72.035034,https://www.midwaypizzamenu.com,
874,Mirch Masala Cuisine of India,,,41.367744,-72.062766,https://www.mirchmasalagroton.com,
584,Mr. Crab Cajun Seafood,,,41.375035,-72.073889,https://www.mrcrabgroton.com,
884,Mynx Cabaret,,,41.37282,-72.073419,,
1186,New York Deli and Diner,,,41.348292,-72.052807,,
329,New York Family Pizza,,,41.368155,-72.066595,https://www.newyorkfamilypizzamenu.com,
367,Olio Restaurant,,,41.362919,-72.067429,https://www.olioct.com,
369,Ortega's Restaurant,,,41.358988,-72.076706,https://ortegasmexrest.com,
376,"Outer Light Brewing Company, LLC",,,41.360758,-72.074326,https://www.outerlightbrewing.com,
382,Panera Bread Bakery Cafe #3901,,,41.368155,-72.066595,https://www.panerabread.com,
385,Par 4 Restaurant,,,41.327264,-72.065608,https://par4restaurant.com,
2193,Patty's Pizza Restaurant LLC,,,41.421129,-72.077906,https://www.pattyspizzact.com,
1614,Paul's Pasta Shop,,,41.356647,-72.0841,https://paulspastashop.com,
199,"Phantasia Restaurant, LLC",,,41.345371,-72.050178,,
204,Pizza Palace,,,41.346891,-72.050067,https://grotonpizzapalace.com,
1088,Popeyes,,,41.350324,-72.056708,https://www.popeyes.com,
1196,Puerto Lima - Farm To Bowl,,,41.425622,-72.081981,https://www.puertolima.com,
1847,Pupusas La Primera,,,41.34648,-72.027974,https://pupusaslaprimeract.com,
1616,Ryan's On The Beach,,,41.319827,-72.068511,,
265,"Ryan's Pub, LLC",,,41.346471,-72.028079,https://www.ryanspubgrotonct.com,
310,Sneeker's Cafe,,,41.34272,-72.060059,https://www.sneekerscafe.com,
532,Starbucks Coffee #11782,,,41.342716,-72.061396,https://www.starbucks.com,
1943,Subway #33211,,,41.347255,-72.075736,https://www.subway.com,
570,Subway #51003,,,41.369956,-72.071535,https://www.subway.com,
1138,Sunny Side Diner,,,41.428733,-72.082954,,
590,Taco Bell #29312,,,41.367715,-72.070256,https://www.tacobell.com,
592,Taqueria Cinco LLC,,,41.354754,-72.061331,https://www.taqueria5.com,
955,The Beer'd Brewing Company,,,41.341715,-72.046273,https://beerdbrewing.com,
1610,The Creamery at Sweet Hill Farm,,,41.426602,-72.084465,https://www.sweethillfarmct.com,
440,The Shack Restaurant - Groton,,,41.354754,-72.061331,https://www.shackrestaurants.com,
2104,The Spot Cafe,,,41.347002,-72.043761,https://thespotct.com,
506,Wendy's #282,,,41.349682,-72.055604,https://www.wendys.com,
516,Wings 'N' Pies,,,41.386626,-72.07821,,
1198,5 Corners Market Inc.,,,41.346766,-72.075868,,
613,"Advantage Personal Training, LLC",,,41.389958,-71.97018,,
616,AFC Sushi @ Big Y #61,,,41.344969,-72.049023,,
1075,Avery Market - Ishaq LLC,,,41.337487,-72.076394,,
1130,Barkin' Barley,,,41.410851,-72.073219,,
2158,Bestway of Groton,,,41.351313,-72.057367,,
662,Big Y Supermarket #61,,,41.344969,-72.049023,,
1961,Blast of Energy,,,41.420374,-72.077677,,
708,Carson's Store,,,41.325845,-71.988047,,
710,Catherine Kolnaski Elementary School,,,41.347821,-72.061837,,
711,Center Groton Fire Company,,,41.384192,-72.024985,,
713,Charles Barnum School,,,41.384263,-72.067659,,
718,Cherished Children,,,41.344386,-72.053554,,
728,Christ United Methodist Church,,,41.355747,-72.024811,,
1125,Complete Care at Groton Regency LLC,,,41.345256,-72.04382,,
763,Cumberland Farms #4689,,,41.349615,-72.076524,,
1872,CVS Pharmacy #377,,,41.345955,-72.051439,,
1873,CVS Pharmacy #556,,,41.427635,-72.082802,,
2151,Dollar General Store #19061,,,41.348519,-72.053092,,
2153,Dollar General Store #24201,,,41.427701,-72.081955,,
30,Eastern Point Beach Concessions,,,41.319442,-72.074406,,
33,Electric Boat #88,,,41.347509,-72.078964,,
1855,Electric Boat B605 Cafeteria,,,41.347509,-72.078964,,
34,Electric Boat Wet Dock,,,41.347509,-72.078964,,
36,Ella T. Grasso,,,41.343219,-72.017778,,
45,Fairview,,,41.373757,-72.083293,,
58,Fitch High School,,,41.339823,-72.012884,,
1222,Fitch Music/Athletic Boosters,,,41.339823,-72.012884,,
72,Fleet Reserve Branch 20,,,41.356074,-72.083787,,
73,"Fort Hill Citgo, LLC",,,41.347428,-72.021772,,
82,Gales Ferry Fire Department,,,41.429292,-72.082484,,
98,Great Brook Sports,,,41.378786,-72.040108,,
929,"Groton Bowling Center & Entertainment, Inc.",,,41.362899,-72.06843,,
105,Groton Community Meals,,,41.34943,-72.030155,,
106,Groton Congregational Church,,,41.35769,-72.079844,,
109,Groton Little League- Calvin Burrows Concession,,,41.342511,-72.038356,,
111,Groton Lodge of Elks #2163,,,41.32776,-72.057876,,
112,Groton Mart,,,41.346533,-72.047819,,
1018,Groton Middle School,,,41.344266,-72.014462,,
1205,Groton Mystic Falcons Concession Staff,,,41.346428,-72.02432,,
114,Groton Senior Center,,,41.34943,-72.030155,,
1958,Groton Shell,,,41.345375,-72.053869,,
183,Groton Town Stop LLC,,,41.368218,-72.069575,,
1921,Hampton Inn,,,41.358605,-72.062026,,
141,Henny Penny #7422,,,41.430097,-72.082605,,
145,Henny Penny #7436,,,41.383263,-72.027137,,
146,Henny Penny #7439,,,41.346613,-72.02837,,
2092,Henny Penny #7443,,,41.379054,-72.076196,,
149,Henny Penny #7454,,,41.370563,-72.070558,,
1918,Hilton Garden Inn,,,41.369919,-72.061816,,
931,Hissho Sushi @ Stop&Shop #0682,,,41.368155,-72.066595,,
158,Holmberg Orchards,,,41.468412,-72.058176,,
194,Juliet Long School,,,41.451597,-72.069924,,
822,Ledyard Middle School,,,41.451889,-72.067425,,
823,Ledyard Senior Center,,,,,,
824,Ledyard Youth League,,,41.453002,-72.069397,,
853,Marine Science Magnet High School of Southeastern Connecticut,,,41.337373,-72.071158,,
895,Mystic Marriott Hotel & Spa,,,41.364979,-72.02529,,
765,Mystic River Magnet,,,41.346501,-71.998124,,
1030,Noank Baptist Church,,,41.326088,-71.986409,,
349,Northeast Academy Elementary School,,,41.383235,-71.984605,,
373,Our Lady of Lourdes,,,41.427711,-72.081029,,
996,Par 4 Curbside Catering,,,41.326761,-72.062927,,
399,Pfizer Bldg. #100 Self Service Area,,,41.334756,-72.076333,,
400,Pfizer Bldg. #200,,,41.347955,-72.078795,,
401,Pfizer Bldg. #220,,,41.347955,-72.078795,,
402,Pfizer Bldg. #274,,,41.347955,-72.078795,,
198,Pfizer Building #220 MO,,,41.347955,-72.078795,,
1886,Raj Cash & Carry,,,41.348405,-72.053055,,
1169,Revelation Church Ministry Center/Malta,,,41.367798,-72.081643,,
262,Rustic Boutique Catering & Events,,,41.430763,-72.083334,,
267,Sacred Heart School,,,41.348896,-72.073492,,
2091,Smoke and More,,,41.346451,-72.026407,,
314,Solstice Senior Living at Groton,,,41.357231,-72.046498,,
527,St. David's Episcopal Church,,,,,,
529,St. Mary's Church,,,41.341894,-72.012811,,
555,Stop and Shop #682,,,41.368155,-72.066595,,
576,Sunny's Food & Fuel,,,41.390206,-71.987589,,
581,Super 8 Motel,,,41.36715,-72.070399,,
1940,T-Mak Bodega LLC,,,41.362232,-72.081352,,
508,Thames River Magnet,,,41.338998,-72.066862,,
409,The Bridge Market,,,41.346576,-72.027389,,
1904,Tripple M African Store LLC,,,41.420681,-72.077339,,
463,TVCCA Child Development Center,,,41.345658,-72.024213,,
464,TVCCA Groton Head Start,,,41.344038,-72.024968,,
473,United Methodist Church of Gales Ferry,,,41.430763,-72.083334,,
474,"US Submarine Veterans, Groton Base",,,41.357115,-72.082427,,
480,Veteran's Convenience,,,41.373169,-72.051629,,
2154,Walgreens #07759,,,41.354373,-72.061468,,
942,Wasu Market,,,41.357658,-72.076076,,
1216,Ledyard Pizza,,,41.429833,-71.983316,https://ledyardpizza.com,
856,Maugle Sierra Vineyards,,,41.454098,-72.0173,https://mauglesierravineyards.com,
872,Ming Moon Chinese Restaurant,,,41.444443,-72.017263,,
921,Zest Fresh Pastry LLC,,,41.443375,-72.01857,http://www.zestfreshpastry.com,
84,Gallup Hill School,,,41.428333,-71.974815,,
819,Ledyard Congregational Church,,,41.440472,-72.015147,,
821,Ledyard High School,,,41.437221,-71.993881,,
2006,Ledyard High School Concession Stand,,,41.437221,-71.993881,,
486,Village Market,,,41.441236,-72.017771,,
699,Camp Claire,,,41.381906,-72.354323,,
1944,Hadlyme Market LLC,,,41.422395,-72.399874,,
840,Lyme Consolidated Elementary School,,,41.413298,-72.337796,,
1854,"Sankow's Beaver Brook Farm, LLC",,,41.411156,-72.311471,,
599,184 Pizzeria,,,41.388899,-71.972993,https://www.184pizzeria.com,
618,AJ's Bistro,,,41.355107,-71.967103,https://www.ajsbistro.com,
1116,All or Muffins,,,41.35586,-71.96667,,
631,Angie's Pizza/Pier 27 Lounge,,,41.351225,-71.961028,https://angiespizzapier27.com,
274,Bleu Ginger Asian Bistro,,,41.354517,-71.970193,https://bleugingerct.com,
1114,Craft Bakeshop LLC DBA Sift Bakeshop,,,41.370047,-71.95468,https://www.siftbakeshopmystic.com,
2071,Danger Bar,,,41.353488,-71.972262,https://dangerbarmystic.com,
476,Deviant Craft Coffee & Artisan Donuts,,,41.373613,-71.956827,,
790,Dog Watch Mystic & Dog Watch Catering,,,41.343309,-71.94889,https://www.dogwatchcafe.com,
5,Dunkin Donuts,,,41.372179,-71.960133,https://www.dunkindonuts.com,
6,Dunkin Donuts,,,41.376821,-71.958415,https://www.dunkindonuts.com,
197,Karma Kitchen Mystic,,,41.35586,-71.96667,https://karmakitchenmystic.com,
801,Kitchen Little,,,41.338344,-71.972725,https://kitchenlittle.org,
826,Lighthouse Bakery,,,41.354501,-71.966831,https://lighthousemystic.com,
852,Mango's Wood Fired Pizza Company,,,41.373613,-71.956827,https://www.mangospizza.com,
859,McDonald's of Mystic,,,41.372009,-71.959636,https://www.mcdonalds.com,
887,Mystic Diner & Restaurant,,,41.373057,-71.960432,https://mysticdiner.com,
889,Mystic Draw Bridge Ice Cream,,,41.354841,-71.969072,http://www.mysticdrawbridgeicecream.com,
1027,Mystic Ice Cream Shop,,,41.354315,-71.968318,,
2102,Mystic Oyster Shack,,,41.35586,-71.96667,https://www.mysticoysters.com,
896,Mystic Pizza,,,41.354591,-71.971649,https://www.mysticpizza.com,
903,Mystic Sweet Shoppe,,,41.354693,-71.969399,https://www.mystic-sweets.com,
980,Nana's Bakery & Pizza,,,41.349268,-71.95882,https://www.nanasct.com,
2004,New Mystic Town Indian Restaurant,,,41.348872,-71.957287,,
244,Noble Smokehouse,,,41.351006,-71.962739,https://noblesmokehouse.com,
2045,Off The Hook by J&R Seafood,,,41.354842,-71.970772,https://offthehookmystic.com,
378,Oyster Club,,,41.352887,-71.971952,https://www.oysterclubct.com,
387,Pasta Fresca & Piadina,,,41.351288,-71.962249,https://www.pastafrescamystic.com,
394,Peking Tokyo,,,41.372104,-71.955117,https://www.johnnysushibar.com,
1813,Pop Over Eatery,,,41.354021,-71.966876,https://www.popovereatery.com,
1135,Propeller Coffee Bar,,,41.361831,-71.964383,,
266,S&P Oyster Co.,,,41.354982,-71.968042,https://www.sp-oyster.com,
1871,Saltwater Cafe,,,41.372609,-71.95775,,
1590,Sea Swirl,,,41.349466,-71.958615,http://seaswirlofmystic.com,
287,Seaview Snack Bar,,,41.36616,-71.96273,https://www.seaviewsnackbar.com,
1180,Seven Birds Ice Cream,,,41.372583,-71.958263,https://sevenbirdsicecream.com,
299,Sift Bakeshop,,,41.353923,-71.971324,https://www.siftbakeshopmystic.com,
1132,Spouter Tavern,,,41.361831,-71.964383,,
533,Starbucks Coffee #7654,,,41.372104,-71.955117,https://www.starbucks.com,
563,Subway #31413,,,41.348872,-71.957287,https://www.subway.com,
2017,Subway 18856,,,41.372363,-71.960064,https://www.subway.com,
1059,Taquerio,,,41.35202,-71.964239,https://www.taquerio-mystic.com,
451,Tin Sushi,,,41.370797,-71.957064,,
1023,Toast + Tonic Creative Kitchen,,,41.372583,-71.958263,https://www.toastandtonicct.com,
1237,Trattoria Amalfi,,,41.372583,-71.958263,https://amalfimystic.com,
608,Academy Point at Mystic,,,41.3571,-71.971539,,
615,AFC Sushi @ Big Y #5,,,41.345624,-71.949819,,
632,Apple Rehab Mystic,,,41.352578,-71.964198,,
1110,ATY Confections,,,41.354183,-71.971084,,
1225,Best Western Mystic,,,41.378394,-71.955052,,
660,Big Y Supermarket #5,,,41.345624,-71.949819,,
1983,Boost Bowls,,,41.354343,-71.971131,,
692,C Depot Inc.,,,41.34526,-71.952788,,
733,Chucky's Shell,,,41.441595,-71.890366,,
740,Clyde's Cider Mill,,,41.392034,-71.961192,,
1877,CVS Pharmacy #2056,,,41.352628,-71.963148,,
782,Denison Pequotsepos Nature Center,,,41.367761,-71.959529,,
43,Extra Virgin Oil Store,,,41.372294,-71.953898,,
968,Franklin's General Store,,,41.372583,-71.958263,,
127,Hampton Inn,,,41.377547,-71.95914,,
143,Henny Penny #7425,,,41.350924,-71.963165,,
154,Hilton Mystic,,,41.371485,-71.953819,,
157,Holiday Inn Express,,,41.371915,-71.958402,,
167,Hyatt Place,,,41.37112,-71.959973,,
1098,J&R Seafood Market,,,41.349218,-71.957241,,
994,"Lamplighter Trading Company, LLC",,,,,,
855,Masonicare at Mystic,,,41.368597,-71.955474,,
860,McQuade's Marketplace,,,41.370797,-71.957064,,
882,Munson's Chocolates,,,41.373613,-71.956827,,
890,Mystic Healthcare & Rehabilitation Center,,,41.356939,-71.973174,,
1054,Mystic Little League Snack Shack,,,41.364213,-71.959694,,
893,Mystic Market,,,41.34594,-71.978001,,
894,Mystic Market East,,,41.348441,-71.955912,,
966,Mystic River Chocolate,,,41.353488,-71.972262,,
898,Mystic River Homes Congregate,,,41.354174,-71.974898,,
366,Olde Mistick Village Art Cinemas,,,41.373613,-71.956827,,
1202,Pendleton SNF Operations LLC,,,41.369457,-71.952459,,
1902,Pepper Palace Inc.,,,41.372583,-71.958263,,
218,Precious Memories Place,,,41.367984,-71.961112,,
223,"Precious Memories Pre-School of Sandy Hollow, Inc.",,,,,,
243,Residence Inn Mystic,,,41.377353,-71.955907,,
286,Seaport Quick Mart LLC,,,41.372179,-71.960133,,
1022,Social Society Frohsinn (German Club),,,41.36023,-71.96343,,
1800,Spark by Hilton Mystic-Groton,,,41.380684,-71.956396,,
528,St. Edmund's Retreat,,,41.322508,-71.962829,,
541,StoneRidge,,,41.369653,-71.944929,,
1044,The Ditty Bag LLC,,,41.351281,-71.962823,,
442,The Spice and Tea Exchange of Mystic,,,41.354912,-71.969103,,
449,Tiger Lily Tea,,,41.373613,-71.956827,,
471,Union Baptist Church,,,41.354073,-71.973405,,
482,VFW Post 3263,,,41.34474,-71.952085,,
1996,A Place 2 Go Jamaican Restaurant,,,41.366363,-72.102385,,
672,Blue Camel Cafe,,,41.490393,-72.093439,,
1143,Blue Duck Bar & Kitchen LLC,,,41.353291,-72.094134,https://www.theblueducknl.com,
674,Boardwalk Creamery,,,41.309171,-72.096372,https://www.ocean-beach-park.com,
2056,Burger King #1046,,,41.36099,-72.115651,https://www.bk.com,
1185,Candy's Chapina Restaurant,,,41.352219,-72.096114,,
705,Captain Scott's Lobster Dock,,,41.347941,-72.097811,https://captscotts.com,
720,Chili's Grill and Bar,,,41.37073,-72.1194,https://www.chilis.com,
721,China Express,,,41.346255,-72.111582,https://www.newlondonchinaexpress.com,
722,China House,,,41.348599,-72.107221,https://www.chinahousenewlondonct.com,
1036,Cinnamon Grill,,,41.350844,-72.099228,https://cinnamongrillnl.com,
2081,Creature Brewing Company LLC,,,41.367196,-72.124003,https://www.creaturebrewing.com,
758,Cross Sound Deli,,,41.356522,-72.093179,,
781,Deli International,,,41.35274,-72.10476,,
783,Denny's #9263,,,41.369085,-72.118874,https://www.dennys.com,
1979,Dockside Resort Bar #2,,,41.353858,-72.093497,,
792,Domino's Pizza,,,41.345731,-72.110818,https://www.dominos.com,
14,Dunkin Donuts #337312,,,41.359309,-72.105365,https://www.dunkindonuts.com,
17,Dunkin Donuts #341508,,,41.359255,-72.116385,https://www.dunkindonuts.com,
19,Dunkin Donuts #344440,,,41.334371,-72.105059,https://www.dunkindonuts.com,
1959,Dutch Tavern,,,41.354247,-72.096082,https://dutch-tavern.com,
1962,El Pilon Bar & Restaurant,,,41.342728,-72.100285,,
35,Elim Bakery,,,41.349868,-72.103478,https://elimbakery.com,
38,Empire Pizza,,,41.358503,-72.104635,https://www.empirepizzanewlondon.com,
1182,Favorites Bistro & Bar,,,41.352821,-72.094709,https://favoritesbistrobar.com,
1155,First Wok New London,,,41.367416,-72.113175,https://www.firstwoknewlondon.com,
1148,Fred's Shanty,,,41.333922,-72.097118,https://fredsshanty.com,
1575,Fred's Shanty Ice Cream,,,41.33417,-72.097425,https://fredsshanty.com,
985,Golden Wok,,,41.358368,-72.115682,,
125,Hamilton Sunset Corp. d/b/a McDonald's of New London #5397,,,41.360429,-72.11651,https://www.mcdonalds.com,
2067,Harbor Cantina Restaurant Bar,,,41.348191,-72.107978,https://harborcantinarestaurantbar.com,
2028,Heaven's Cafe,,,41.34515,-72.105181,,
182,Jasmine Thai Restaurant,,,41.349913,-72.100431,https://www.jasminethainl.com,
1890,Kin D Thai & Sushi,,,41.354614,-72.09545,https://www.kin-dthaiandsushi.com,
2148,L.A. Chicken,,,41.350943,-72.098811,https://lachickenct.com,
2098,Lion House Cafe,,,41.350518,-72.100654,https://lionhousecafe.com,
831,Little Galapagos Bar & Grill,,,41.35836,-72.103437,https://little-galapagos-bar-grill.webnode.page,
2166,Melos Caribbean Restaurant,,,41.351872,-72.102607,,
864,Mi Casa Mexican Restaurant II,,,41.353324,-72.09475,,
1213,Mi Familia Restaurant,,,41.36285,-72.112782,https://mifamilia365.com,
1851,Mi Guatemala Restaurant & Bakery,,,41.351431,-72.102466,https://www.miguatemalarestaurantbakery.com,
868,Michael's Dairy,,,41.328698,-72.097968,https://michaelsdairynl.com,
1140,Muddy Waters Cafe,,,41.353423,-72.09404,https://muddywaterscafe.toast.site,
908,Neon Chicken,,,41.347835,-72.101194,,
343,Noodles & Rice Bistro LLC,,,41.35239,-72.095838,https://noodlesandricenl.com,
353,Oasis Pub,,,41.353807,-72.093856,https://www.oasisnewlondon.com,
357,Ocean Pizza Palace,,,41.345486,-72.107378,https://oceanpizzarestaurant.com,
371,Osmino's Grill,,,41.349879,-72.103658,,
377,Oven-On Bakery,,,41.355731,-72.11153,,
207,Pizzarama,,,41.366817,-72.12325,https://pizzaramanewlondon.com,
211,Pollos A La Brasa CJ,,,41.369099,-72.129642,,
212,Popeyes Chicken,,,41.362051,-72.115832,https://www.popeyes.com,
2084,Pub 181,,,41.354957,-72.098909,,
250,Rita's Water Ice,,,41.358613,-72.115694,https://www.ritasice.com,
2120,RT Mambo Bar and Restaurant LLC,,,41.351057,-72.098078,https://mambobarrestaurantct.com,
1013,Shanghai Garden Restaurant,,,41.358503,-72.104635,https://www.shanghainewlondon.com,
292,Shiloh Family Life Center Kitchen,,,41.354181,-72.103467,,
1580,Subway #89,,,41.359076,-72.11576,https://www.subway.com,
578,Sunrise Cafe,,,41.353116,-72.095305,,
585,Swad Tandoori,,,41.354467,-72.09599,https://www.swadtandoorinewlondon.com,
589,Taco Bell #29308,,,41.359997,-72.116372,https://www.tacobell.com,
597,Texas Roadhouse,,,41.36934,-72.119961,https://www.texasroadhouse.com,
445,The Walk-in Coffee Closet,,,41.379133,-72.106531,,
1985,Tox Brewing Co.,,,41.352696,-72.09533,https://www.toxbrewing.com,
494,Washington Street Coffee House,,,41.354277,-72.098746,https://www.washingtonstreetcoffeehouse.com,
2058,Water Street Waffle Company,,,41.352635,-72.09544,https://waterstreetwafflecompanynl.com,
505,Waterfront Cafe,,,41.334321,-72.097688,https://onthewaterfrontnl.com,
507,Wendy's #303,,,41.358859,-72.116308,https://www.wendys.com,
510,Whaler Cafe,,,41.358089,-72.122441,,
1234,Wings N Pies,,,41.354639,-72.095559,,
1174,Woodfellas Pizza - New London,,,41.354233,-72.099063,https://woodfellaspizza.com,
917,Yolk Cafe,,,41.323172,-72.092635,http://brokenyolkcafe.net,
1799,7-Eleven #32518 C,,,41.361302,-72.109627,,
1585,All Souls Unitarian Universalist Congregation,,,41.35447,-72.100648,,
621,Alliance for Living,,,41.358564,-72.104996,,
1025,Altruism Acute Care & Evaluation,,,41.352776,-72.100319,,
2030,Anchor Down Nutrition,,,41.352024,-72.097201,,
654,Bennie Dover Jackson Middle School,,,41.358118,-72.107034,,
1120,Best Way,,,41.348557,-72.106718,,
663,"Birdseye, LLC",,,41.354497,-72.11068,,
673,Boardwalk Cafeteria,,,41.309171,-72.096372,,
747,Chartwells HE - Crozier Williams @ ConnColl,,,41.379133,-72.106531,,
748,Chartwells HE - Jane Addams @ ConnColl,,,41.379133,-72.106531,,
749,Chartwells HE - Smith Catering @ ConnColl,,,41.379133,-72.106531,,
746,Chartwells HE - Social House @ Harris,,,41.379133,-72.106531,,
736,Clarke Center at Mitchell College,,,41.328151,-72.096163,,
1957,Comfort Catering Home of Blazin BBQ,,,41.353673,-72.095921,,
743,Compass Group at Electric Boat,,,41.340277,-72.09581,,
745,Connecticut College - Coffee Grounds,,,41.379133,-72.106531,,
752,Covenant Shelter,,,41.353488,-72.10067,,
761,Cumberland Farms #4637,,,41.34168,-72.105641,,
1874,CVS Pharmacy #1080,,,41.349046,-72.107395,,
786,DJ's Campus Kitchen,,,41.365953,-72.101931,,
1925,Dollar & UP Mega Mart,,,41.354985,-72.097909,,
2149,Dollar General Store #15074,,,41.362887,-72.116297,,
323,Early Childhood Development Center New London,,,41.360994,-72.103431,,
24,East Coast Catering,,,41.354729,-72.096056,,
31,Edible Arrangements,,,41.354982,-72.097562,,
1848,El Quetzal Mini Market,,,41.360525,-72.108866,,
41,Eshals Grocery Store,,,41.360708,-72.108834,,
1924,Express Food Mart,,,41.365543,-72.101574,,
51,Fiddleheads Natural Food Co-Op,,,41.355961,-72.099773,,
1809,Fit Fam,,,41.354929,-72.098744,,
925,Garde Arts Center Inc.,,,41.35543,-72.099024,,
120,H&T Mini Mart LLC,,,41.348599,-72.107221,,
123,Hamilton Street Market,,,41.36695,-72.123975,,
131,Harbour Village North,,,41.338201,-72.110105,,
137,"Healthcare Visions, Inc dba Beechwood",,,41.361575,-72.103987,,
1569,Honey Bee Farms,,,41.350969,-72.097592,,
2190,Honeybee Market,,,41.354684,-72.097309,,
1107,Isaac School,,,41.355705,-72.098151,,
176,Italian Dramatic Club,,,41.345142,-72.097045,,
186,Jennings School,,,41.35653,-72.105221,,
807,L&M Hospital Kitchen/Cafeteria,,,41.336358,-72.104726,,
825,Lee's Oriental Market,,,41.36671,-72.102526,,
1995,Melodey Mini Mart LLC,,,41.333886,-72.104137,,
904,Mystic Valero GO Mystic Inc.,,,41.352107,-71.998909,,
907,Nathan Hale School,,,41.321445,-72.098823,,
2025,New London Breakfast Program,,,41.357193,-72.100979,,
914,New London Community Meal Center,,,41.348705,-72.105385,,
2087,New London Community Recreation Center,,,41.344728,-72.095624,,
324,New London High School,,,41.358089,-72.122441,,
325,New London Lodge of Elks #360,,,41.352692,-72.099854,,
326,New London Senior Center,,,41.357256,-72.104124,,
327,New London Sports Complex,,,41.358089,-72.122441,,
351,NSA Supermarket,,,41.367577,-72.11363,,
355,Ocean Ave Learning Academy,,,41.327367,-72.101467,,
2015,OM Grocery,,,41.35353,-72.113024,,
1042,Pay Rite,,,41.33453,-72.104473,,
210,Polish American Vets Club,,,41.365808,-72.096835,,
1629,Prepped LLC,,,41.352692,-72.099854,,
735,Regency Inn and Suites,,,41.370751,-72.115812,,
242,Regional Multicultural Magnet School,,,41.358894,-72.100103,,
268,Saeed's International Market,,,41.333661,-72.104137,,
270,Salvation Army Center Kitchen,,,41.356626,-72.096679,,
272,Sam's Food Store 2,,,41.332635,-72.104596,,
2106,Shell - Bestway Foodmart,,,41.366529,-72.10187,,
295,Shop Rite #354,,,41.371975,-72.117419,,
316,Sonny's Market,,,41.357427,-72.114661,,
577,Sunoco,,,41.614055,-71.974224,,
403,Thames Club,,,41.354791,-72.098379,,
405,Thames River Greenery,,,41.35414,-72.094544,,
406,Thames Yacht Club,,,41.330148,-72.093932,,
417,The Drop-In Learning Center,,,41.357092,-72.099069,,
1113,The Spice Palette,,,41.346522,-72.110899,,
465,TVCCA Headstart/ Little Learners Kitchen,,,41.371986,-72.115179,,
481,VFW Post #189,,,41.353288,-72.10984,,
2155,Walgreens #10483,,,41.348862,-72.103956,,
1588,Wasu Market,,,41.350433,-72.101705,,
514,Williams School,,,41.376305,-72.103792,,
517,Winthrop School,,,41.368594,-72.099934,,
2032,809 Cafe,,,41.442629,-71.801615,https://809cafe.com,
9,Dunkin Donuts #304391,,,41.427988,-71.862016,https://www.dunkindonuts.com,
20,Dunkin Donuts #351183,,,41.440901,-71.80203,https://www.dunkindonuts.com,
181,Jake's Restaurant,,,41.436795,-71.872278,https://www.jakesrestaurantct.com,
192,Jonathan Edwards Winery,,,41.462341,-71.878165,https://www.jedwardswinery.com,
1621,Kingdom of the Hawk Vineyard,,,41.42414,-71.845253,https://www.kingdomofthehawk.com,
897,Mystic Pizza II,,,41.425344,-71.858436,https://mysticpizza2.com,
2110,S'Barro,,,41.442629,-71.801615,https://www.sbarro.com,
485,Shunock River Brewery LLC,,,41.44359,-71.881416,https://shunockriverbrewery.com,
568,Subway #46040,,,41.44,-71.79,https://www.subway.com,
1077,Xing Long Chinese Restaurant,,,41.447284,-71.897565,https://www.xinglongstonington.com,
1230,Best Way of North Stonington 2,,,41.423685,-71.860106,,
701,Camp Wightman,,,41.508898,-71.869438,,
744,Congregational Church of North Stonington,,,41.439969,-71.883749,,
2152,Dollar General Store #19450,,,41.439684,-71.798969,,
48,Fast Fuel,,,41.437196,-71.873175,,
152,Hill Top Inn & Suites,,,41.446119,-71.895427,,
1195,Kady's Farmstand,,,41.443262,-71.891043,,
950,Kidds & Co. LLC,,,41.421402,-71.86487,,
814,Lake of Isles,,,41.484571,-71.94786,,
1238,North Stonington Bible Church,,,41.427447,-71.911608,,
346,North Stonington Elementary,,,41.43955,-71.888916,,
1111,Sarwat Qamar,,,41.438736,-71.79875,,
547,Stonington Institute,,,41.474321,-71.928101,,
1031,The Tin Peddler,,,41.437377,-71.873948,,
347,Wheeler Middle-High School,,,41.438527,-71.887217,,
1211,Wild Briar's Catering,,,41.442506,-71.850281,,
723,China House,,,41.423187,-72.110523,https://www.chinahousequakerhill.com,
1963,North Stonington Sandwich Co.,,,41.447825,-71.896782,,
1037,Two Greeks Pizza LLC,,,41.403178,-72.112288,https://www.twogreekspizzamenu.com,
762,Cumberland Farms #4657,,,41.424809,-72.109535,,
2105,Gujjar Mart,,,41.422708,-72.110397,,
374,Our Lady of Perpetual Help,,,41.394035,-72.109127,,
225,Quaker Hill Baptist Church,,,41.405688,-72.111096,,
630,Andy's Deli & Market,,,41.324797,-72.333662,https://www.andysdeliandmarket.com,
695,Café Flo,,,41.32574,-72.326868,https://flogris.org/cafe-flo/,
754,Crepes on the Corner,,,41.286378,-72.278191,,
22,Dunkin Donuts #354824,,,41.324331,-72.336105,https://www.dunkindonuts.com,
337,Nightingale's Acoustic Café,,,41.319665,-72.329391,https://www.muscinowfoundation.org,
1233,Papi's Taqueria,,,41.324797,-72.333662,https://papistaqueriact.com,
279,Sapore Pizzeria & Bar,,,41.347439,-72.300478,https://saporeoldlyme.com,
1176,Subway #33579,,,41.323658,-72.336696,https://www.subway.com,
595,Teddy's Old Lyme Pizza Palace,,,41.290692,-72.280779,http://www.teddysoldlymepizza.com,
478,"Vecchittos Italian Ice, Inc.",,,41.285136,-72.27758,,
617,AFC Sushi at Big Y #6,,,41.322473,-72.337146,,
1134,Bestway Old Lyme Corp,,,41.290247,-72.278141,,
661,Big Y Supermarket #6,,,41.322473,-72.337146,,
666,"Black Hall Club, Inc.",,,41.291924,-72.297621,,
1989,Chestnut Market,,,41.323701,-72.337785,,
727,Christ the King Roman Catholic Church,,,41.310609,-72.332864,,
741,Coffee's Country Market,,,41.347859,-72.300289,,
757,Cross Lane Concession Stand,,,41.294813,-72.28143,,
44,"EZ Mini Mart Food Store, LLC",,,41.290034,-72.278574,,
2127,Fadia Al-Hasan,,,41.290555,-72.280749,,
56,First Congregational Church of Old Lyme,,,41.311661,-72.334309,,
844,Lyme's Senior Center,,,41.35135,-72.304865,,
842,Lyme-Old Lyme High School,,,41.318123,-72.325674,,
843,Lyme-Old Lyme Middle School,,,41.318732,-72.327486,,
871,Mile Creek Elementary School,,,41.2965,-72.283399,,
360,"Old Lyme Beach Club, Inc.",,,41.279702,-72.299888,,
361,"Old Lyme Country Club, Inc.",,,41.30428,-72.325139,,
296,Shoreline Community Center,,,41.287509,-72.278252,,
413,The Carousel Shop,,,41.285762,-72.278112,,
1228,Boro Bodega and Sccopery,,,41.33389,-71.90665,https://www.borobodega.com,
2038,Borough Bagel Co. LLC,,,41.338137,-71.898086,,
789,Dog Watch Cafe,,,41.339269,-71.907563,,
4,Dunkin Donuts,,,41.3790,-71.8385,https://www.dunkindonuts.com,
1066,Dunkin Donuts,,,41.376076,-71.839693,https://www.dunkindonuts.com,
1929,Flour Shop Bagels,,,41.376435,-71.833284,,
1217,Go Fish Restaurant,,,41.343397,-71.94758,https://gofishct.com,
172,Indulgee Coffee & Sandwich Co.,,,41.335714,-71.906643,https://indulgecoffeeco.com,
1887,J&G Rail Side Restaurant LLC,,,41.37255,-71.835221,https://www.jandgrailside.com,
1884,Little Man's Diner,,,41.376857,-71.834325,,
847,Main Street Pizza,,,41.369517,-71.861141,https://mainstreetpizzari.com,
857,McDonald's,,,41.405876,-71.850183,https://www.mcdonalds.com,
862,Mel's Downtown Creamery,,,41.377862,-71.832354,http://melsdowntowncreamery.com,
340,Noah's Restaurant,,,41.333988,-71.90666,https://noahsfinefood.com,
389,Pawcatuck Dairy Queen,,,41.378461,-71.834587,https://www.dairyqueen.com,
396,Pequot Golf & Grille,,,41.381842,-71.912274,https://pequotgolf.com/the-grill-at-pequot/,
269,Saltwater Farm Vineyard,,,41.34868,-71.888693,https://www.saltwaterfarmvineyard.com,
283,Sea Well Seafood,,,41.37762,-71.833572,https://seawellseafood.website,
284,Seafood Etc. Inc.,,,41.376224,-71.842111,,
2174,Stevie Lee's Cafe,,,41.338137,-71.898086,,
549,Stonington Pizza Palace,,,41.348917,-71.91164,https://www.stoningtonpizza.com,
2060,Stonington Vineyards,,,41.408439,-71.902637,https://stoningtonvineyards.com,
557,Subway,,,41.369517,-71.861141,https://www.subway.com,
650,The Beer'd Brewing Co.,,,41.338137,-71.898086,https://beerdbrewing.com,
422,The Handlebar Cafe,,,41.372707,-71.853157,,
1804,The Pizza Lady LLC,,,41.379562,-71.836303,https://pizzaladyct.com,
1865,Top's China,,,41.375589,-71.847523,https://www.topschinact.com,
2124,Waffle Pop Sweet Shop LLC,,,41.376499,-71.835266,https://www.wafflepopct.com,
495,Water Street Cafe,,,41.334915,-71.906785,https://www.waterstcafe.com,
513,Whitecrest Eatery,,,41.338137,-71.898086,https://whitecresteatery.com,
922,"Zest Fresh Pastry, LLC",,,41.338137,-71.898086,http://www.zestfreshpastry.com,
2173,Anchor Davis-Standard,,,41.376,-71.835,,
702,Capizzanos Oils & Vinegars,,,41.378449,-71.831713,,
739,Clubhouse at Elmridge,,,41.394178,-71.861273,,
776,Deans Mill School,,,41.361789,-71.924953,,
132,"Harley P. Chase, VFW Post 1265",,,41.370317,-71.858634,,
147,Henny Penny #7446,,,41.377558,-71.833831,,
2079,Lighthouse Community Baptist Church,,,41.377379,-71.84377,,
2185,Mystic Dark Room,,,41.36371,-71.936891,,
391,Pawcatuck Neighborhood Center,,,41.374543,-71.835396,,
1009,Pawcatuck Workingmen's Club,,,41.376668,-71.83328,,
216,"Portuguese Holy Ghost Society, INC",,,41.332696,-71.906125,,
298,SHS Athletic Booster Concession,,,41.36716,-71.861075,,
1593,St. Michael's Church,,,41.380002,-71.837353,,
1595,Steve Tyler,,,41.338137,-71.898086,,
542,Stonington Borough Fire Department,,,41.337861,-71.906541,,
543,Stonington Community Center,,,41.338792,-71.902833,,
544,Stonington Country Club,,,41.39811,-71.889621,,
545,Stonington Harbor Yacht Club,,,41.330626,-71.906455,,
546,Stonington High School,,,41.36716,-71.861075,,
390,Stonington Little League,,,,,,
1993,Stonington Middle School,,,41.370215,-71.843128,,
550,Stonington Village Food Mart,,,41.346766,-71.922027,,
552,Stop and Shop #2607,,,41.406625,-71.846289,,
453,Tom's News Stand,,,41.334579,-71.906749,,
2070,Wadawanuck Club,,,41.340653,-71.90956,,
509,West Vine Street School,,,41.385648,-71.841693,,
2100,Wild Side Market,,,41.3716,-71.85529,,
2065,Buffalo Wild Wing Grill and Bar,,,41.374174,-72.144581,https://www.buffalowildwings.com,
1907,Chipotle Mexican Grill #4902,,,41.341298,-72.123259,https://www.chipotle.com,
1852,Cold Stone Creamery,,,41.379304,-72.14989,https://www.coldstonecreamery.com,
1845,Cowlick's Creamery,,,41.367248,-72.184538,https://cowlickscreamery.net,
1221,Crown Pizza,,,41.356957,-72.171538,https://crownpizzawaterford.com,
2062,Divinely Sweet LLC,,,41.341605,-72.118162,https://www.divinelysweetgourmet.com,
81,Froyo World,,,41.377253,-72.147678,https://www.froyoworld.com,
134,"Hatzis Donuts, LLC",,,41.386442,-72.159473,https://www.dunkindonuts.com,
187,Jersey Mike's Subs,,,41.379304,-72.14989,https://www.jerseymikes.com,
188,JJ Sunset LLC d/b/a McDonalds at WalMart #18676,,,41.370659,-72.154964,https://www.mcdonalds.com,
189,JJ Sunset LLC DBA McDonald's of Waterford #18361,,,41.342606,-72.125445,https://www.mcdonalds.com,
804,"Kostas Donuts, LLC",,,41.349936,-72.154015,https://www.dunkindonuts.com,
815,Langley's Restaurant LLC,,,41.318561,-72.138471,https://www.greatneckgolf.com/langleys/restaurant,
834,Longhorn Steakhouse #5334,,,41.377253,-72.147678,https://www.longhornsteakhouse.com,
876,Moe's Southwest Grill - Store #3554,,,41.379304,-72.14989,https://www.moes.com,
2061,Mystic Coffee LLC,,,41.383534,-72.158091,https://www.mysticcoffee.co,
352,NV Bakery and Market,,,41.341718,-72.114848,https://www.nvbakeryandmarket.com,
368,Olive Garden Italian Restaurant #1613,,,41.377253,-72.147678,https://www.olivegarden.com,
381,Panera Bread #3865,,,41.379029,-72.149445,https://www.panerabread.com,
1024,Papa John's Pizza,,,41.341192,-72.123855,https://www.papajohns.com,
301,Sizzling Wok,,,41.349936,-72.154015,https://www.sizzlingwokct.com,
1004,Smashburger #1734,,,41.379212,-72.149741,https://www.smashburger.com,
1803,Smoothie King,,,41.341192,-72.123855,https://www.smoothieking.com,
531,Starbucks - T-1267,,,41.376614,-72.15015,https://www.starbucks.com,
1209,Starbucks Coffee #67833,,,41.371411,-72.136418,https://www.starbucks.com,
567,Subway #44136,,,41.341298,-72.123259,https://www.subway.com,
583,Supreme Pizza,,,41.34309,-72.115348,https://www.supremepizzact.com,
450,Timari,,,41.374174,-72.144581,,
490,"Volis Donuts, LLC",,,41.341413,-72.122599,,
1824,Waterford Pizza Palace,,,41.342026,-72.124625,https://www.waterfordpizzapalace.com,
2186,ALDI #51,,,41.341015,-72.125139,,
1159,Alltown Fresh Select Waterford,,,41.371411,-72.136418,,
636,Atria Crossroads Place,,,41.366551,-72.157533,,
1137,Atto di Fede Nutrition & Energy,,,41.342413,-72.126561,,
647,Bayview Health Care,,,41.328311,-72.165707,,
1885,Bestway Convenience Store,,,41.341876,-72.125085,,
2072,Bestway Convenience Store,,,41.341476,-72.119327,,
664,BJ's Wholesale Club #84,,,41.360033,-72.16472,,
700,Camp Harkness,,,41.307268,-72.108266,,
737,Clark Lane Middle School,,,41.351484,-72.12605,,
1876,CVS Pharmacy #1268,,,41.341192,-72.123855,,
959,Dollar General Store #21601,,,41.342234,-72.12506,,
1014,Dominion Millstone Power,,,41.326776,-72.16966,,
42,Eugene O'Neill Theatre Center,,,41.31031,-72.105897,,
80,Friendship School,,,41.341367,-72.132893,,
2089,Gather 360,,,41.325508,-72.173843,,
99,Great Neck School,,,41.313103,-72.133511,,
103,Greentree Manor,,,41.394657,-72.145958,,
139,Henny Penny #7420,,,41.332926,-72.136337,,
142,Henny Penny #7423,,,41.387433,-72.158832,,
138,Henny Penny #7438,,,41.35808,-72.173719,,
1597,Hissho Sushi @ Stop&Shop #667,,,41.343348,-72.130224,,
156,Hoelck's Florist,,,41.352293,-72.157426,,
328,New London Rehab & Care of Waterford,,,41.348191,-72.127548,,
1010,Ollie's Bargain Outlet,,,41.342606,-72.125445,,
372,Oswegatchie Elementary School,,,41.359701,-72.180016,,
226,Quaker Hill Elementary School,,,41.401753,-72.113966,,
227,Quaker Hill Fire Company,,,41.404286,-72.113337,,
1928,Regal Cinemas 9,,,41.375134,-72.160219,,
251,Riverside Grocery,,,41.31021,-72.145958,,
257,Rodeway Inn at Crossroads,,,41.36925,-72.166996,,
271,Sam's Food Store,,,41.342413,-72.126561,,
525,Spring Hill Suites by Marriott,,,41.372579,-72.121138,,
530,St. Paul's Church,,,41.333857,-72.153076,,
554,Stop and Shop #667,,,41.342606,-72.125445,,
1906,Target Store T-1267,,,41.376614,-72.15015,,
596,Temple Emanu-El,,,41.375388,-72.137194,,
466,TVCCA Senior Cafe at Temple Emanu-El,,,41.375388,-72.137194,,
493,Walmart Supercenter #2331,,,41.370951,-72.155419,,
497,Waterford Country School,,,41.416055,-72.153498,,
498,Waterford High School,,,41.340043,-72.129736,,
502,Waterford Senior Center,,,41.341367,-72.132893,,
503,Waterford VFW #6573,,,41.353856,-72.164789,,
504,Waterford Youth Football League,,,41.323879,-72.157073,,
